[
 {
  "PushEvent": 22, 
  "ForkEvent": 2, 
  "PullRequestEvent": 1, 
  "IssueCommentEvent": 6, 
  "name": "KARLSKRONA", 
  "lat": 56.1621073, 
  "WatchEvent": 1, 
  "lng": 15.5866422, 
  "IssuesEvent": 9, 
  "DownloadEvent": 8
 }, 
 {
  "lat": 43.1152835, 
  "WatchEvent": 1, 
  "lng": 131.8854009, 
  "name": "VLADIVOSTOK", 
  "PushEvent": 8
 }, 
 {
  "ForkEvent": 1, 
  "PushEvent": 9, 
  "lat": 43.615046, 
  "WatchEvent": 3, 
  "lng": -116.2044429, 
  "name": "BOISE, IDAHO"
 }, 
 {
  "lat": 40.797073, 
  "lng": -81.5001575, 
  "name": "NEW ENGLAND [USA]", 
  "CreateEvent": 1
 }, 
 {
  "lat": 50.9035305, 
  "lng": -1.4041996, 
  "name": "SOUTHAMPTON UK", 
  "PushEvent": 1
 }, 
 {
  "DownloadEvent": 1, 
  "name": "NASHVILLE, TN", 
  "GollumEvent": 1, 
  "PullRequestEvent": 2, 
  "IssueCommentEvent": 5, 
  "PushEvent": 92, 
  "DeleteEvent": 1, 
  "ForkEvent": 2, 
  "lat": 36.1949274, 
  "WatchEvent": 14, 
  "CommitCommentEvent": 1, 
  "IssuesEvent": 13, 
  "lng": -86.7417714, 
  "CreateEvent": 19
 }, 
 {
  "lat": 43.5892854, 
  "lng": -79.6441646, 
  "IssuesEvent": 6, 
  "name": "MISSISSAUGA", 
  "IssueCommentEvent": 5
 }, 
 {
  "lat": 40.3925137, 
  "WatchEvent": 1, 
  "lng": 49.8466787, 
  "name": "BAKU"
 }, 
 {
  "lat": 13.7000829, 
  "lng": -89.1490279, 
  "name": "EL SALVADOR, SOYAPANGO", 
  "CreateEvent": 5
 }, 
 {
  "lat": null, 
  "WatchEvent": 4, 
  "lng": null, 
  "name": "SAN FRANCISCO / CHINA / BOSTON"
 }, 
 {
  "ForkEvent": 1, 
  "PullRequestEvent": 11, 
  "PushEvent": 20, 
  "lat": null, 
  "lng": null, 
  "name": "MONTERMORELOS"
 }, 
 {
  "lat": null, 
  "WatchEvent": 1, 
  "lng": null, 
  "name": "SHANGHAI@CHINA"
 }, 
 {
  "lat": 36.6464327, 
  "WatchEvent": 2, 
  "lng": 117.0135274, 
  "name": "JINAN,CHINA"
 }, 
 {
  "name": "CHINA HANGZHOU", 
  "PushEvent": 1, 
  "lat": 30.2376859, 
  "WatchEvent": 5, 
  "lng": 120.443014692563, 
  "ForkEvent": 2
 }, 
 {
  "ForkEvent": 1, 
  "DeleteEvent": 2, 
  "PushEvent": 42, 
  "name": "THE UNIVERSITY OF ARIZONA, TUCSON, ARIZONA", 
  "lat": 32.2311898, 
  "lng": -110.9525995, 
  "CreateEvent": 6
 }, 
 {
  "lat": 51.8339209, 
  "lng": -4.916667, 
  "GollumEvent": 3, 
  "name": "PEMBROKESHIRE/UK", 
  "PushEvent": 3
 }, 
 {
  "name": "BRISTOL", 
  "IssueCommentEvent": 2, 
  "PushEvent": 51, 
  "ForkEvent": 1, 
  "lat": 51.4556994, 
  "WatchEvent": 6, 
  "lng": -2.5952658, 
  "IssuesEvent": 2, 
  "CreateEvent": 2
 }, 
 {
  "lat": 47.7747692, 
  "WatchEvent": 1, 
  "lng": -3.60974122939512, 
  "name": "RIVE DROITE"
 }, 
 {
  "PublicEvent": 1, 
  "DownloadEvent": 4, 
  "PullRequestEvent": 1, 
  "IssueCommentEvent": 3, 
  "PushEvent": 178, 
  "name": "NYC", 
  "ForkEvent": 12, 
  "lat": 40.7305991, 
  "WatchEvent": 27, 
  "lng": -73.9865812, 
  "CreateEvent": 13
 }, 
 {
  "lat": null, 
  "lng": null, 
  "CreateEvent": 1, 
  "name": "LOST BETWEEN BITS", 
  "PushEvent": 13
 }, 
 {
  "lat": 34.435363, 
  "WatchEvent": 5, 
  "lng": -93.0460175870445, 
  "name": "HOT SPRINGS, ARKANSAS"
 }, 
 {
  "lat": 53.1389753, 
  "WatchEvent": 1, 
  "lng": 8.2146017, 
  "name": "OLDENBURG, GERMANY"
 }, 
 {
  "name": "GUELPH, ON, CANADA", 
  "PullRequestEvent": 1, 
  "IssueCommentEvent": 2, 
  "PushEvent": 11, 
  "CommitCommentEvent": 1, 
  "ForkEvent": 1, 
  "lat": 43.5461764, 
  "lng": -80.2470591, 
  "IssuesEvent": 4, 
  "CreateEvent": 3
 }, 
 {
  "lat": 35.154859, 
  "lng": 137.0061774, 
  "name": "NAGOYA,AICHI,JAPAN", 
  "PushEvent": 1
 }, 
 {
  "lat": 47.4711708, 
  "lng": -0.5517522, 
  "name": "ANGERS", 
  "CreateEvent": 1
 }, 
 {
  "lat": 42.291707, 
  "WatchEvent": 1, 
  "lng": -85.5872286, 
  "name": "KALAMAZOO, MI"
 }, 
 {
  "lat": 49.0105758, 
  "lng": 8.4041208, 
  "name": "KARLSRUHE/GERMANY", 
  "ForkEvent": 1
 }, 
 {
  "ForkEvent": 3, 
  "PullRequestEvent": 2, 
  "PushEvent": 36, 
  "name": "BERKELEY, CA, USA", 
  "CommitCommentEvent": 6, 
  "lat": 37.769025, 
  "lng": -122.179173210734, 
  "CreateEvent": 35
 }, 
 {
  "name": "JYV\u00e4SKYL\u00e4, FINLAND", 
  "GollumEvent": 1, 
  "IssueCommentEvent": 23, 
  "PushEvent": 58, 
  "lat": 62.2393006, 
  "WatchEvent": 3, 
  "lng": 25.7459479, 
  "IssuesEvent": 43, 
  "CreateEvent": 3
 }, 
 {
  "lat": 48.6296972, 
  "WatchEvent": 3, 
  "lng": 9.1949534, 
  "name": "BADEN-WUERTTEMBERG, GERMANY"
 }, 
 {
  "lat": 29.4246002, 
  "lng": -98.4951405, 
  "name": "SAN ANTONIO,TX.", 
  "ForkEvent": 1
 }, 
 {
  "lat": 41.8800296, 
  "lng": -88.0078435, 
  "name": "LOMBARD, IL", 
  "ForkEvent": 1
 }, 
 {
  "PublicEvent": 2, 
  "name": "PHILADELPHIA", 
  "IssueCommentEvent": 1, 
  "PushEvent": 30, 
  "lat": 39.952335, 
  "WatchEvent": 13, 
  "lng": -75.163789, 
  "IssuesEvent": 1, 
  "CreateEvent": 1
 }, 
 {
  "lat": -1.9508511, 
  "MemberEvent": 1, 
  "lng": 30.0615075, 
  "name": "KIGALI, RWANDA", 
  "PushEvent": 38
 }, 
 {
  "lat": 38.6820005, 
  "lng": -120.98513960061, 
  "IssuesEvent": 1, 
  "name": "CAMERON PARK, CA"
 }, 
 {
  "name": "PENANG, MALAYSIA", 
  "PullRequestEvent": 1, 
  "PushEvent": 3, 
  "lat": 5.4065013, 
  "WatchEvent": 4, 
  "lng": 100.2559077, 
  "CreateEvent": 1
 }, 
 {
  "PullRequestReviewCommentEvent": 28, 
  "name": "BAY AREA, CA", 
  "PullRequestEvent": 18, 
  "PushEvent": 70, 
  "IssueCommentEvent": 84, 
  "DeleteEvent": 9, 
  "CommitCommentEvent": 32, 
  "ForkEvent": 1, 
  "lat": 37.7884969, 
  "WatchEvent": 6, 
  "lng": -122.3558473, 
  "IssuesEvent": 13, 
  "CreateEvent": 27
 }, 
 {
  "ForkEvent": 1, 
  "PullRequestEvent": 1, 
  "IssueCommentEvent": 1, 
  "PushEvent": 1, 
  "lat": 50.04696605, 
  "lng": 19.997215975018, 
  "name": "KRAKOW"
 }, 
 {
  "name": "S\u00e3O PAULO - BRAZIL", 
  "IssueCommentEvent": 2, 
  "PushEvent": 52, 
  "CommitCommentEvent": 1, 
  "lat": -21.9549806, 
  "WatchEvent": 1, 
  "lng": -49.0232348, 
  "CreateEvent": 2
 }, 
 {
  "lat": 49.2553, 
  "WatchEvent": 5, 
  "lng": 8.87722, 
  "name": "SINSHEIM, GERMANY", 
  "ForkEvent": 1
 }, 
 {
  "ForkEvent": 2, 
  "PullRequestEvent": 1, 
  "IssueCommentEvent": 2, 
  "PushEvent": 11, 
  "lat": 48.1535383, 
  "WatchEvent": 3, 
  "lng": 17.1096711, 
  "name": "BRATISLAVA, SLOVAKIA"
 }, 
 {
  "name": "ROCKVILLE, MD USA", 
  "DeleteEvent": 5, 
  "PushEvent": 12, 
  "lat": 39.0840054, 
  "lng": -77.1527573, 
  "CreateEvent": 6
 }, 
 {
  "ForkEvent": 4, 
  "GollumEvent": 1, 
  "CreateEvent": 1, 
  "PullRequestEvent": 11, 
  "IssueCommentEvent": 10, 
  "PushEvent": 59, 
  "CommitCommentEvent": 1, 
  "lat": 39.6895036, 
  "lng": -84.1688274, 
  "IssuesEvent": 8, 
  "name": "KETTERING, OHIO - USA"
 }, 
 {
  "ForkEvent": 6, 
  "IssueCommentEvent": 1, 
  "PushEvent": 7, 
  "lat": 23.0216238, 
  "WatchEvent": 2, 
  "lng": 72.5797068, 
  "IssuesEvent": 1, 
  "name": "AHMEDABAD"
 }, 
 {
  "lat": -22.90556, 
  "WatchEvent": 1, 
  "lng": -47.06083, 
  "name": "CAMPINAS, SAO PAULO - BRAZIL", 
  "ForkEvent": 1
 }, 
 {
  "lat": 14.6510101, 
  "lng": 121.0486031, 
  "CreateEvent": 1, 
  "name": "QUEZON CITY, PHILIPPINES", 
  "IssueCommentEvent": 1
 }, 
 {
  "lat": 17.387903, 
  "lng": 78.4765228617469, 
  "IssuesEvent": 1, 
  "name": "HYDERABAD , ANDHRA PRADESH , INDIA", 
  "IssueCommentEvent": 2
 }, 
 {
  "name": "SANTO DOMINGO, DOMINICAN REPUBLIC", 
  "PullRequestEvent": 1, 
  "PushEvent": 6, 
  "IssueCommentEvent": 7, 
  "CommitCommentEvent": 1, 
  "ForkEvent": 1, 
  "lat": 18.463916, 
  "WatchEvent": 3, 
  "lng": -69.8946638, 
  "IssuesEvent": 5, 
  "CreateEvent": 1
 }, 
 {
  "name": "AURORA, CO", 
  "CreateEvent": 1, 
  "PullRequestEvent": 2, 
  "PushEvent": 6, 
  "IssueCommentEvent": 47, 
  "CommitCommentEvent": 4, 
  "ForkEvent": 1, 
  "lat": 39.5987285, 
  "WatchEvent": 1, 
  "lng": -104.800429025079, 
  "IssuesEvent": 11, 
  "GollumEvent": 2
 }, 
 {
  "ForkEvent": 1, 
  "PullRequestEvent": 1, 
  "PushEvent": 1, 
  "lat": null, 
  "WatchEvent": 1, 
  "lng": null, 
  "name": "\u798f\u5efa\u53a6\u95e8"
 }, 
 {
  "lat": null, 
  "WatchEvent": 2, 
  "lng": null, 
  "name": "TEXAS DOGG"
 }, 
 {
  "name": "HACKITY-HACK", 
  "PushEvent": 1, 
  "lat": null, 
  "WatchEvent": 1, 
  "lng": null, 
  "CreateEvent": 1
 }, 
 {
  "lat": null, 
  "PublicEvent": 1, 
  "name": "VIRGO SUPERCLUSTER, MILKY WAY GALAXY, SOL SYSTEM, EARTH", 
  "lng": null, 
  "PushEvent": 1
 }, 
 {
  "lat": 35.5141834, 
  "lng": 24.0181459, 
  "name": "CHANIA CRETE", 
  "PushEvent": 10
 }, 
 {
  "lat": 42.6112242, 
  "lng": -71.5745402, 
  "name": "GROTON, MA", 
  "CreateEvent": 1
 }, 
 {
  "lat": 39.9272459, 
  "WatchEvent": 3, 
  "lng": 32.8520044, 
  "name": "ANKARA", 
  "ForkEvent": 1
 }, 
 {
  "lat": 50.0125227, 
  "lng": 18.8781012, 
  "CreateEvent": 1, 
  "name": "RADOSTOWICE \u015aL\u0105SKIE POLAND", 
  "PushEvent": 5
 }, 
 {
  "name": "USA, RI", 
  "IssueCommentEvent": 6, 
  "PushEvent": 6, 
  "lat": 42.89145075, 
  "lng": -71.3273655615127, 
  "IssuesEvent": 3, 
  "GollumEvent": 5
 }, 
 {
  "lat": -0.8999695, 
  "lng": 11.6899699, 
  "name": "GA", 
  "PushEvent": 12
 }, 
 {
  "lat": null, 
  "WatchEvent": 3, 
  "lng": null, 
  "name": "H\u1ed3 CH\u00ed MINH, VIETNAM"
 }, 
 {
  "lat": -12.9816356, 
  "WatchEvent": 1, 
  "lng": -38.4820771, 
  "name": "SALVADOR, BA. BRASIL"
 }, 
 {
  "PublicEvent": 1, 
  "name": "PORTLAND", 
  "PushEvent": 12, 
  "IssueCommentEvent": 13, 
  "CommitCommentEvent": 5, 
  "lat": 45.5202471, 
  "WatchEvent": 1, 
  "lng": -122.6741949, 
  "IssuesEvent": 12, 
  "GollumEvent": 6
 }, 
 {
  "lat": null, 
  "lng": null, 
  "name": "SAINT-PETERSBURG, RUSSIAN FED.", 
  "PushEvent": 4
 }, 
 {
  "lat": -7.1178011, 
  "WatchEvent": 1, 
  "lng": -34.8321878, 
  "name": "JO\u00e3O PESSOA, PARA\u00edBA"
 }, 
 {
  "lat": null, 
  "lng": null, 
  "name": "SAMONTE/MG BRASIL", 
  "ForkEvent": 1
 }, 
 {
  "lat": 55.861147, 
  "lng": -4.2499891, 
  "IssuesEvent": 1, 
  "name": "GLASGOW, SCOTLAND, UK", 
  "IssueCommentEvent": 3
 }, 
 {
  "lat": 47.2740721, 
  "lng": 11.2412137, 
  "name": "ZIRL / AUSTRIA", 
  "PushEvent": 5
 }, 
 {
  "MemberEvent": 3, 
  "name": "\u0130ZMIR/TURKEY", 
  "PushEvent": 1, 
  "lat": 38.4153421, 
  "lng": 27.144474, 
  "CreateEvent": 3
 }, 
 {
  "lat": null, 
  "lng": null, 
  "name": "COPENHAGEN (DK), OSTRAVA (CZ)", 
  "PushEvent": 2
 }, 
 {
  "lat": null, 
  "lng": null, 
  "name": "ARGENTINE / SANTA FE & ROSARIO & RECONQUISTA", 
  "PushEvent": 11
 }, 
 {
  "lat": 51.76735, 
  "lng": 5.50926, 
  "name": "OSS, NETHERLANDS", 
  "PushEvent": 5
 }, 
 {
  "lat": null, 
  "lng": null, 
  "CreateEvent": 1, 
  "name": "FASDF", 
  "PushEvent": 5
 }, 
 {
  "MemberEvent": 4, 
  "PullRequestReviewCommentEvent": 18, 
  "name": "FRANCE", 
  "GollumEvent": 166, 
  "PullRequestEvent": 97, 
  "IssueCommentEvent": 475, 
  "PushEvent": 1772, 
  "DeleteEvent": 83, 
  "DownloadEvent": 7, 
  "CommitCommentEvent": 183, 
  "ForkEvent": 39, 
  "lat": 46.603354, 
  "WatchEvent": 77, 
  "lng": 1.8883335, 
  "IssuesEvent": 367, 
  "CreateEvent": 1961
 }, 
 {
  "lat": 51.434012, 
  "lng": -0.511044, 
  "name": "STAINES, UK", 
  "PushEvent": 2
 }, 
 {
  "lat": null, 
  "lng": null, 
  "CreateEvent": 1, 
  "name": "P.O. BOX 268, STONY BROOK, NY, 11790", 
  "PushEvent": 2
 }, 
 {
  "PublicEvent": 1, 
  "DownloadEvent": 2, 
  "ForkEvent": 14, 
  "GollumEvent": 3, 
  "PullRequestEvent": 5, 
  "IssueCommentEvent": 13, 
  "PushEvent": 231, 
  "name": "PHILADELPHIA, PA", 
  "DeleteEvent": 2, 
  "lat": 39.952335, 
  "WatchEvent": 22, 
  "lng": -75.163789, 
  "IssuesEvent": 16, 
  "CreateEvent": 27
 }, 
 {
  "lat": 39.1350661, 
  "lng": -83.5638077, 
  "name": "PROSPECT, OH", 
  "PushEvent": 3
 }, 
 {
  "lat": 51.3773124, 
  "lng": -0.102858339854681, 
  "name": "BULGARIA + UK", 
  "GollumEvent": 1
 }, 
 {
  "name": "HUDDERSFIELD", 
  "IssueCommentEvent": 12, 
  "PushEvent": 32, 
  "lat": 53.6467036, 
  "lng": -1.7832108, 
  "IssuesEvent": 11, 
  "GollumEvent": 5
 }, 
 {
  "PublicEvent": 1, 
  "PullRequestReviewCommentEvent": 4, 
  "name": "GENEVA, SWITZERLAND", 
  "GollumEvent": 2, 
  "PullRequestEvent": 2, 
  "IssueCommentEvent": 5, 
  "PushEvent": 37, 
  "DownloadEvent": 3, 
  "ForkEvent": 1, 
  "lat": 46.2017559, 
  "WatchEvent": 14, 
  "lng": 6.1466014, 
  "IssuesEvent": 15, 
  "CreateEvent": 8
 }, 
 {
  "lat": 54.9645435, 
  "lng": 24.0826585, 
  "name": "LITHUANIA, KAUNAS", 
  "PushEvent": 1
 }, 
 {
  "PushEvent": 19, 
  "DownloadEvent": 2, 
  "PullRequestEvent": 2, 
  "IssueCommentEvent": 6, 
  "name": "FREMONT, CALIFORNIA", 
  "CommitCommentEvent": 2, 
  "lat": 37.5482697, 
  "lng": -121.9885719, 
  "CreateEvent": 10
 }, 
 {
  "lat": 27.9477595, 
  "lng": -82.458444, 
  "name": "TAMPA, FLORIDA", 
  "PushEvent": 1
 }, 
 {
  "lat": 42.6511674, 
  "WatchEvent": 1, 
  "lng": -73.754968, 
  "name": "ALBANY NY"
 }, 
 {
  "ForkEvent": 1, 
  "PullRequestEvent": 1, 
  "IssueCommentEvent": 1, 
  "PushEvent": 10, 
  "name": "CA, USA", 
  "CommitCommentEvent": 2, 
  "lat": 36.7014631, 
  "WatchEvent": 3, 
  "lng": -118.7559974, 
  "GollumEvent": 1, 
  "CreateEvent": 1
 }, 
 {
  "lat": 37.4181901, 
  "lng": -79.8747687, 
  "name": "TROUTVILLE, VA", 
  "CreateEvent": 1
 }, 
 {
  "name": "VALPARA\u00edSO", 
  "PushEvent": 49, 
  "lat": -33.0475721, 
  "lng": -71.6153581, 
  "GollumEvent": 1, 
  "CreateEvent": 1
 }, 
 {
  "ForkEvent": 1, 
  "PushEvent": 7, 
  "lat": 33.7490987, 
  "WatchEvent": 1, 
  "lng": -84.3901849, 
  "name": "ATLANTA,GA"
 }, 
 {
  "lat": null, 
  "lng": null, 
  "name": "GUANG DONG, CHINA", 
  "ForkEvent": 1
 }, 
 {
  "MemberEvent": 1, 
  "DownloadEvent": 13, 
  "name": "AMSTERDAM, NL", 
  "PullRequestEvent": 1, 
  "IssueCommentEvent": 5, 
  "PushEvent": 13, 
  "lat": 52.3710088, 
  "WatchEvent": 2, 
  "lng": 4.9001115, 
  "IssuesEvent": 4, 
  "CreateEvent": 4
 }, 
 {
  "lat": 40.7795455, 
  "PublicEvent": 1, 
  "name": "UNION CITY", 
  "lng": -74.0237512, 
  "PushEvent": 22
 }, 
 {
  "PushEvent": 128, 
  "ForkEvent": 16, 
  "GollumEvent": 1, 
  "PullRequestEvent": 4, 
  "IssueCommentEvent": 5, 
  "name": "CHINA BEIJING", 
  "DownloadEvent": 1, 
  "lat": 51.4760773, 
  "WatchEvent": 24, 
  "lng": -0.0368321, 
  "IssuesEvent": 3, 
  "CreateEvent": 10
 }, 
 {
  "lat": 37.9735346, 
  "WatchEvent": 2, 
  "lng": -122.5310874, 
  "name": "SAN RAFAEL, CA, US"
 }, 
 {
  "name": "RECIFE, BRAZIL", 
  "PullRequestEvent": 13, 
  "IssueCommentEvent": 4, 
  "PushEvent": 17, 
  "DeleteEvent": 1, 
  "ForkEvent": 1, 
  "lat": -8.0581077, 
  "WatchEvent": 1, 
  "lng": -34.8979047, 
  "CreateEvent": 10
 }, 
 {
  "ForkEvent": 1, 
  "PushEvent": 17, 
  "name": "LISBOA", 
  "lat": 38.7128995, 
  "WatchEvent": 6, 
  "lng": -9.1328948, 
  "GollumEvent": 2
 }, 
 {
  "lat": 11.1109839, 
  "lng": 122.6408636, 
  "name": "ASIA PACIFIC", 
  "PushEvent": 3
 }, 
 {
  "lat": 50.8465406, 
  "lng": 4.3516841, 
  "CreateEvent": 5, 
  "name": "BRUSSELS, BE", 
  "PushEvent": 5
 }, 
 {
  "lat": 37.5726028, 
  "lng": -85.1551411, 
  "name": "KENTUCKY", 
  "CreateEvent": 2
 }, 
 {
  "lat": 54.19447595, 
  "lng": 37.6308663886882, 
  "IssuesEvent": 2, 
  "name": "TULA, RUSSIA", 
  "IssueCommentEvent": 1
 }, 
 {
  "lat": 22.2657516, 
  "lng": 113.568045, 
  "name": "ZHUHAI, GUANGDONG, CHINA", 
  "PushEvent": 3
 }, 
 {
  "lat": 45.5224507, 
  "lng": -73.5912827, 
  "name": "MONTREAL (CANADA)", 
  "PushEvent": 7
 }, 
 {
  "lat": 18.833333, 
  "WatchEvent": 1, 
  "lng": -98.0, 
  "name": "PUEBLA"
 }, 
 {
  "lat": 35.319327, 
  "WatchEvent": 2, 
  "lng": 139.550405, 
  "name": "KAMAKURA, JAPAN"
 }, 
 {
  "lat": null, 
  "lng": null, 
  "name": "SF BAY AREA, CALIFORNIA, USA", 
  "PushEvent": 2
 }, 
 {
  "lat": null, 
  "lng": null, 
  "CreateEvent": 1, 
  "name": "SHANGHAI,FUDAN", 
  "PushEvent": 5
 }, 
 {
  "lat": 26.4614625, 
  "lng": -80.0728201, 
  "CreateEvent": 2, 
  "name": "DELRAY BEACH, FL", 
  "PushEvent": 9
 }, 
 {
  "name": "EAST LANSING, MICHIGAN", 
  "DeleteEvent": 1, 
  "PushEvent": 13, 
  "lat": 42.7355416, 
  "lng": -84.4852469, 
  "CreateEvent": 2
 }, 
 {
  "name": "PLOVDIV/BULGARIA", 
  "PullRequestEvent": 1, 
  "PushEvent": 5, 
  "CommitCommentEvent": 1, 
  "lat": 42.1419118, 
  "WatchEvent": 1, 
  "lng": 24.7498385
 }, 
 {
  "lat": -22.9112163, 
  "WatchEvent": 1, 
  "lng": -43.2093781, 
  "name": "RIO DE JANEIRO, RJ, BRASIL"
 }, 
 {
  "MemberEvent": 1, 
  "name": "HELSINKI FINLAND", 
  "PushEvent": 4, 
  "lat": 60.1713198, 
  "WatchEvent": 1, 
  "lng": 24.9414566
 }, 
 {
  "lat": 39.7589478, 
  "lng": -84.1916069, 
  "name": "DAYTON, OHIO", 
  "ForkEvent": 2
 }, 
 {
  "lat": 30.5000001, 
  "WatchEvent": 1, 
  "lng": 102.4999999, 
  "name": "SICHUAN, CHINA"
 }, 
 {
  "lat": 34.0938138, 
  "lng": -118.097575695867, 
  "name": "SAN GABRIEL, CA", 
  "ForkEvent": 4
 }, 
 {
  "ForkEvent": 8, 
  "PullRequestEvent": 12, 
  "IssueCommentEvent": 1, 
  "PushEvent": 54, 
  "name": "JAPAN/TOKYO", 
  "CommitCommentEvent": 2, 
  "lat": 35.6713591, 
  "WatchEvent": 1, 
  "lng": 139.750841408373, 
  "CreateEvent": 13
 }, 
 {
  "lat": 46.8250388, 
  "WatchEvent": 1, 
  "lng": 103.8499736, 
  "name": "MONGOLIA"
 }, 
 {
  "lat": 47.9027336, 
  "lng": 1.9086066, 
  "name": "ORL\u00e9ANS", 
  "PushEvent": 4
 }, 
 {
  "ForkEvent": 4, 
  "CreateEvent": 4, 
  "PullRequestEvent": 10, 
  "IssueCommentEvent": 11, 
  "PushEvent": 42, 
  "lat": null, 
  "lng": null, 
  "IssuesEvent": 5, 
  "name": "NEVADA, U.S.A."
 }, 
 {
  "name": "KIEV UKRAINE", 
  "PushEvent": 4, 
  "lat": 50.4499875, 
  "WatchEvent": 1, 
  "lng": 30.5234937, 
  "CreateEvent": 1
 }, 
 {
  "lat": 53.2606635, 
  "lng": -2.1255158, 
  "CreateEvent": 1, 
  "name": "MACCLESFIELD, UK", 
  "PushEvent": 22
 }, 
 {
  "ForkEvent": 1, 
  "PullRequestEvent": 1, 
  "IssueCommentEvent": 1, 
  "PushEvent": 1, 
  "name": "SHERBROOKE, QC, CANADA", 
  "lat": 45.4029964, 
  "lng": -71.887681, 
  "CreateEvent": 1
 }, 
 {
  "ForkEvent": 5, 
  "PullRequestEvent": 16, 
  "PushEvent": 55, 
  "name": "TEMPE, AZ", 
  "lat": 33.4146319, 
  "WatchEvent": 7, 
  "lng": -111.9093793, 
  "GollumEvent": 9
 }, 
 {
  "name": "GLENVIEW, IL", 
  "PullRequestEvent": 6, 
  "IssueCommentEvent": 5, 
  "PushEvent": 19, 
  "CommitCommentEvent": 5, 
  "ForkEvent": 1, 
  "lat": 38.3084025, 
  "lng": -85.6502394, 
  "CreateEvent": 2
 }, 
 {
  "lat": 39.5162234, 
  "WatchEvent": 1, 
  "lng": -76.9382069, 
  "name": "MARYLAND USA"
 }, 
 {
  "lat": -2.2010072, 
  "WatchEvent": 2, 
  "lng": -79.8818938, 
  "name": "GUAYAQUIL"
 }, 
 {
  "name": "BIRMINGHAM, UK", 
  "PullRequestEvent": 48, 
  "IssueCommentEvent": 32, 
  "PushEvent": 164, 
  "DeleteEvent": 23, 
  "CommitCommentEvent": 24, 
  "ForkEvent": 3, 
  "lat": 52.4813679, 
  "WatchEvent": 1, 
  "lng": -1.8980726, 
  "IssuesEvent": 13, 
  "CreateEvent": 36
 }, 
 {
  "MemberEvent": 1, 
  "PullRequestReviewCommentEvent": 1, 
  "ForkEvent": 8, 
  "PullRequestEvent": 12, 
  "IssueCommentEvent": 4, 
  "PushEvent": 68, 
  "name": "ORLANDO, FL", 
  "DeleteEvent": 1, 
  "CommitCommentEvent": 4, 
  "lat": 28.5421175, 
  "WatchEvent": 5, 
  "lng": -81.3790462, 
  "GollumEvent": 1, 
  "CreateEvent": 21
 }, 
 {
  "lat": 44.9772995, 
  "WatchEvent": 12, 
  "lng": -93.2654692, 
  "name": "MINNEAPOLIS, MINNESOTA, USA"
 }, 
 {
  "lat": 53.1330954, 
  "lng": 6.42780229295697, 
  "name": "RODEN, THE NETHERLANDS", 
  "PushEvent": 4
 }, 
 {
  "ForkEvent": 8, 
  "DeleteEvent": 2, 
  "IssueCommentEvent": 1, 
  "PushEvent": 16, 
  "name": "HA NOI, VIET NAM", 
  "PullRequestEvent": 2, 
  "lat": 21.0292095, 
  "WatchEvent": 3, 
  "lng": 105.85247, 
  "CreateEvent": 6
 }, 
 {
  "name": "TANDIL, BUENOS AIRES, ARGENTINA", 
  "IssueCommentEvent": 1, 
  "PushEvent": 9, 
  "lat": -37.3213732, 
  "lng": -59.1334196, 
  "IssuesEvent": 1
 }, 
 {
  "lat": 59.8108365, 
  "lng": 30.4409952109279, 
  "ForkEvent": 1, 
  "name": "RUSSIA ST.PETERSBURG", 
  "CreateEvent": 1
 }, 
 {
  "lat": -29.7544405, 
  "WatchEvent": 1, 
  "lng": -51.1516803, 
  "name": "S\u00e3O LEOPOLDO, BRAZIL", 
  "ForkEvent": 2
 }, 
 {
  "MemberEvent": 8, 
  "PublicEvent": 1, 
  "PullRequestReviewCommentEvent": 16, 
  "name": "PARIS", 
  "GollumEvent": 227, 
  "PullRequestEvent": 122, 
  "IssueCommentEvent": 292, 
  "PushEvent": 1424, 
  "DeleteEvent": 32, 
  "DownloadEvent": 2, 
  "CommitCommentEvent": 116, 
  "ForkApplyEvent": 1, 
  "ForkEvent": 63, 
  "lat": 48.8565056, 
  "WatchEvent": 116, 
  "lng": 2.3521334, 
  "IssuesEvent": 304, 
  "CreateEvent": 179
 }, 
 {
  "name": "SAPPORO, JAPAN", 
  "ForkEvent": 2, 
  "lat": 43.0620481, 
  "WatchEvent": 2, 
  "lng": 141.3544569, 
  "CreateEvent": 1
 }, 
 {
  "lat": 39.5186002, 
  "WatchEvent": 1, 
  "lng": -104.7613634, 
  "name": "PARKER, CO"
 }, 
 {
  "name": "SASKATOON", 
  "PullRequestEvent": 1, 
  "PushEvent": 1, 
  "lat": 52.1303794, 
  "lng": -106.6605124, 
  "CreateEvent": 1
 }, 
 {
  "lat": null, 
  "WatchEvent": 2, 
  "lng": null, 
  "name": "HAIKOU CITY HAINAN PROVINCE CHINA"
 }, 
 {
  "lat": 33.5895444, 
  "WatchEvent": 1, 
  "lng": 130.3947385, 
  "name": "FUKUOKA/JAPAN"
 }, 
 {
  "PullRequestReviewCommentEvent": 3, 
  "name": "KONSTANZ", 
  "PullRequestEvent": 49, 
  "IssueCommentEvent": 113, 
  "PushEvent": 308, 
  "DeleteEvent": 7, 
  "CommitCommentEvent": 16, 
  "ForkEvent": 1, 
  "lat": 47.659216, 
  "WatchEvent": 2, 
  "lng": 9.1750718, 
  "IssuesEvent": 84, 
  "CreateEvent": 44
 }, 
 {
  "ForkEvent": 3, 
  "PushEvent": 5, 
  "name": "SAN MATEO, CA, USA", 
  "lat": 37.5446217, 
  "WatchEvent": 1, 
  "lng": -122.3091165, 
  "CreateEvent": 1
 }, 
 {
  "name": "TOKYO / JAPAN", 
  "PushEvent": 2, 
  "lat": 35.6800712, 
  "WatchEvent": 2, 
  "lng": 139.7685224, 
  "CreateEvent": 1
 }, 
 {
  "lat": 59.9606739, 
  "lng": 30.1586551, 
  "name": "ST PETERSBURG, RUSSIA", 
  "ForkEvent": 1
 }, 
 {
  "lat": 42.3604823, 
  "lng": -71.0595678, 
  "name": "BOSTON, MA USA", 
  "PushEvent": 4
 }, 
 {
  "ForkEvent": 1, 
  "PullRequestEvent": 4, 
  "PushEvent": 20, 
  "name": "BOCHUM GERMANY", 
  "lat": 51.4833001, 
  "WatchEvent": 4, 
  "lng": 7.2166699, 
  "CreateEvent": 1
 }, 
 {
  "name": "CHINA, SHANGHAI", 
  "PushEvent": 2, 
  "lat": 31.22852055, 
  "WatchEvent": 4, 
  "lng": 121.402098662966, 
  "ForkEvent": 2
 }, 
 {
  "lat": 48.8168214, 
  "lng": 9.433843, 
  "PushEvent": 1, 
  "name": "REMSHALDEN / GERMANY", 
  "CreateEvent": 1
 }, 
 {
  "name": "BRISBANE, QLD AU.", 
  "PullRequestEvent": 4, 
  "IssueCommentEvent": 3, 
  "PushEvent": 83, 
  "CommitCommentEvent": 1, 
  "lat": -27.4689682, 
  "lng": 153.0234991, 
  "CreateEvent": 4
 }, 
 {
  "lat": null, 
  "PublicEvent": 2, 
  "name": "GOI\u00e2NIA, GO, BRAZIL", 
  "lng": null, 
  "PushEvent": 1
 }, 
 {
  "PushEvent": 49, 
  "DownloadEvent": 4, 
  "PullRequestEvent": 1, 
  "IssueCommentEvent": 6, 
  "name": "LOCALHOST", 
  "lat": null, 
  "lng": null, 
  "IssuesEvent": 3, 
  "GollumEvent": 49
 }, 
 {
  "lat": 53.7588858, 
  "lng": -2.6962638, 
  "name": "EAST LANCASHIRE UK", 
  "ForkEvent": 1
 }, 
 {
  "lat": 41.9216734, 
  "lng": -93.3122705, 
  "name": "IOWA, USA", 
  "PushEvent": 3
 }, 
 {
  "lat": 55.1666671, 
  "lng": 23.9999999, 
  "CreateEvent": 1, 
  "name": "KAUNAS, LITHUANIA, EUROPE", 
  "PushEvent": 7
 }, 
 {
  "lat": null, 
  "WatchEvent": 1, 
  "lng": null, 
  "name": "PRAGUE, CZECH REPUBLIC, EUROPE"
 }, 
 {
  "lat": 51.43406, 
  "lng": 5.48784, 
  "IssuesEvent": 3, 
  "name": "EINDHOVEN, THE NETHERLANDS", 
  "IssueCommentEvent": 1
 }, 
 {
  "lat": 13.9269297, 
  "WatchEvent": 1, 
  "lng": 121.6131654, 
  "name": "LUCENA CITY, PHILIPPINES"
 }, 
 {
  "name": "BRNO, CZ", 
  "IssueCommentEvent": 5, 
  "PushEvent": 51, 
  "lat": 49.1921324, 
  "lng": 16.6110408, 
  "IssuesEvent": 10, 
  "CreateEvent": 10
 }, 
 {
  "lat": 35.0185804, 
  "WatchEvent": 5, 
  "lng": 135.763835, 
  "name": "KYOTO, JAPAN", 
  "PushEvent": 5
 }, 
 {
  "lat": 35.5707535, 
  "WatchEvent": 1, 
  "lng": -80.8183015200372, 
  "name": "MOORESVILLE, NC"
 }, 
 {
  "lat": 34.1683386, 
  "lng": -118.6059197, 
  "name": "WOODLAND HILLS, CA", 
  "PushEvent": 8
 }, 
 {
  "lat": 43.715925, 
  "lng": 10.4018984, 
  "CreateEvent": 1, 
  "name": "PISA", 
  "PushEvent": 5
 }, 
 {
  "lat": 51.3713049, 
  "lng": -0.101957, 
  "name": "CROYDON", 
  "CreateEvent": 1
 }, 
 {
  "lat": 52.1261437, 
  "lng": 11.6289300999064, 
  "CreateEvent": 1, 
  "name": "MAGDEBURG", 
  "PushEvent": 3
 }, 
 {
  "lat": -38.7399123, 
  "lng": -72.5899599, 
  "name": "TEMUCO, CHILE", 
  "GollumEvent": 2
 }, 
 {
  "lat": null, 
  "WatchEvent": 1, 
  "lng": null, 
  "name": "CHIHUAHUA CHIH, MEX."
 }, 
 {
  "lat": 37.8043808, 
  "WatchEvent": 1, 
  "lng": -122.2708166, 
  "name": "OAKLAND"
 }, 
 {
  "PushEvent": 16, 
  "ForkEvent": 1, 
  "PullRequestEvent": 1, 
  "IssueCommentEvent": 1, 
  "name": "DELFT, THE NETHERLANDS", 
  "lat": 52.0114017, 
  "lng": 4.35839, 
  "CreateEvent": 1
 }, 
 {
  "lat": 54.6843135, 
  "lng": 25.2853984, 
  "name": "VILNIUS", 
  "PushEvent": 17
 }, 
 {
  "MemberEvent": 2, 
  "name": "CLEVELAND, OH", 
  "PushEvent": 90, 
  "lat": 41.4871888, 
  "WatchEvent": 5, 
  "lng": -81.6778691, 
  "IssuesEvent": 4, 
  "CreateEvent": 3
 }, 
 {
  "PullRequestReviewCommentEvent": 5, 
  "name": "BERWYN, PA", 
  "PullRequestEvent": 3, 
  "IssueCommentEvent": 1, 
  "PushEvent": 4, 
  "lat": 40.0448306, 
  "lng": -75.4388053, 
  "CreateEvent": 1
 }, 
 {
  "PushEvent": 32, 
  "DownloadEvent": 7, 
  "DeleteEvent": 1, 
  "IssueCommentEvent": 9, 
  "name": "AACHEN, GERMANY", 
  "ForkEvent": 3, 
  "lat": 50.7762954, 
  "lng": 6.0838209, 
  "IssuesEvent": 8, 
  "CreateEvent": 9
 }, 
 {
  "lat": 41.0170578, 
  "WatchEvent": 1, 
  "lng": 28.9855676, 
  "name": "ISTANBUL,TURKEY"
 }, 
 {
  "MemberEvent": 1, 
  "PullRequestReviewCommentEvent": 15, 
  "name": "S\u00e3O PAULO, SP, BRAZIL", 
  "PullRequestEvent": 37, 
  "IssueCommentEvent": 7, 
  "PushEvent": 62, 
  "DeleteEvent": 2, 
  "DownloadEvent": 1, 
  "CommitCommentEvent": 1, 
  "lat": -23.5503279, 
  "WatchEvent": 4, 
  "lng": -46.6339647, 
  "IssuesEvent": 1, 
  "CreateEvent": 11
 }, 
 {
  "MemberEvent": 2, 
  "ForkEvent": 6, 
  "GollumEvent": 2, 
  "IssueCommentEvent": 5, 
  "PushEvent": 34, 
  "name": "MEXICO", 
  "CommitCommentEvent": 4, 
  "lat": 22.5000485, 
  "WatchEvent": 6, 
  "lng": -100.0000375, 
  "IssuesEvent": 22, 
  "CreateEvent": 9
 }, 
 {
  "lat": 23.1397941, 
  "WatchEvent": 2, 
  "lng": 113.2817601, 
  "name": "CHINA GZ"
 }, 
 {
  "ForkEvent": 1, 
  "PullRequestEvent": 1, 
  "PushEvent": 1, 
  "name": "MARING\u00e1/PR", 
  "lat": -23.4251041, 
  "lng": -51.9382846, 
  "CreateEvent": 1
 }, 
 {
  "DownloadEvent": 5, 
  "PullRequestEvent": 1, 
  "PushEvent": 26, 
  "name": "SMOLENSK, RUSSIA", 
  "lat": 54.7940612, 
  "lng": 32.0549595, 
  "GollumEvent": 2, 
  "CreateEvent": 2
 }, 
 {
  "name": "PALO ALTO, CALIFORNIA", 
  "PushEvent": 2, 
  "lat": 37.442156, 
  "WatchEvent": 1, 
  "lng": -122.1634472, 
  "GollumEvent": 1
 }, 
 {
  "lat": 52.5198535, 
  "WatchEvent": 1, 
  "lng": 13.4385964, 
  "name": "BERLIN, DE", 
  "PushEvent": 5
 }, 
 {
  "lat": null, 
  "lng": null, 
  "name": "BROOKLYN \u21c4 NEW HAVEN", 
  "PushEvent": 7
 }, 
 {
  "ForkEvent": 2, 
  "PushEvent": 5, 
  "name": "HANGZHOU CHINA", 
  "CommitCommentEvent": 9, 
  "lat": 30.2665643, 
  "WatchEvent": 8, 
  "lng": 120.149335, 
  "GollumEvent": 1
 }, 
 {
  "lat": -31.4010441, 
  "WatchEvent": 1, 
  "lng": -64.1940223, 
  "name": "CORDOBA, CORDOBA, ARGENTINA"
 }, 
 {
  "PushEvent": 10, 
  "ForkEvent": 3, 
  "PullRequestEvent": 5, 
  "IssueCommentEvent": 5, 
  "name": "ANN ARBOR, MICHIGAN", 
  "lat": 42.2681569, 
  "WatchEvent": 2, 
  "lng": -83.7312291, 
  "PullRequestReviewCommentEvent": 1, 
  "CreateEvent": 9
 }, 
 {
  "lat": null, 
  "lng": null, 
  "CreateEvent": 1, 
  "name": "BOSTON AND DC AREAS", 
  "PushEvent": 2
 }, 
 {
  "lat": 25.0182673, 
  "WatchEvent": 5, 
  "lng": 121.535927, 
  "name": "TAIWAN TAIPEI", 
  "PushEvent": 2
 }, 
 {
  "name": "ST ANDREW, SCOTLAND", 
  "DeleteEvent": 3, 
  "PushEvent": 20, 
  "PullRequestEvent": 1, 
  "CommitCommentEvent": 1, 
  "lat": 52.1832365, 
  "lng": -0.008807, 
  "CreateEvent": 3
 }, 
 {
  "name": "PHOENIX, AZ, USA", 
  "ForkEvent": 9, 
  "lat": 33.8872355, 
  "WatchEvent": 1, 
  "lng": -112.071987034466, 
  "CreateEvent": 2
 }, 
 {
  "lat": 32.896323, 
  "WatchEvent": 1, 
  "lng": -97.0464352546893, 
  "name": "DFW, TX"
 }, 
 {
  "name": "SANTA \u00daRSULA", 
  "IssueCommentEvent": 2, 
  "PushEvent": 35, 
  "lat": 28.4252917, 
  "lng": -16.4917035, 
  "IssuesEvent": 11, 
  "CreateEvent": 4
 }, 
 {
  "name": "SALVADOR / BA. BRASIL", 
  "PullRequestEvent": 1, 
  "PushEvent": 1, 
  "lat": -12.9816356, 
  "WatchEvent": 1, 
  "lng": -38.4820771, 
  "ForkEvent": 1
 }, 
 {
  "lat": null, 
  "lng": null, 
  "name": "KIEV, UKARINE", 
  "PushEvent": 2
 }, 
 {
  "lat": 44.0838517, 
  "lng": -93.226044, 
  "IssuesEvent": 2, 
  "name": "OWATONNA, MINNESOTA, USA"
 }, 
 {
  "lat": 37.769025, 
  "PublicEvent": 4, 
  "name": "BERKELEY, USA", 
  "lng": -122.179173210734, 
  "PushEvent": 2
 }, 
 {
  "lat": -23.8431724, 
  "lng": 151.256132, 
  "IssuesEvent": 1, 
  "name": "GLADSTONE, QLD, AUSTRALIA."
 }, 
 {
  "name": "FUKUOKA,JAPAN", 
  "PushEvent": 1, 
  "lat": 33.5895444, 
  "WatchEvent": 1, 
  "lng": 130.3947385, 
  "CreateEvent": 1
 }, 
 {
  "lat": 41.493929, 
  "WatchEvent": 1, 
  "lng": -72.5982114, 
  "name": "CONNECTICUT"
 }, 
 {
  "lat": 49.7778589, 
  "lng": 6.66808876551487, 
  "name": "TRIER, GERMANY", 
  "PushEvent": 1
 }, 
 {
  "lat": 37.270973, 
  "WatchEvent": 1, 
  "lng": -79.9414313, 
  "name": "ROANOKE, VA"
 }, 
 {
  "ForkEvent": 1, 
  "PullRequestEvent": 1, 
  "PushEvent": 1, 
  "IssueCommentEvent": 6, 
  "lat": 51.8876651, 
  "lng": 5.7756163, 
  "IssuesEvent": 1, 
  "name": "LOENEN, GELDERLAND, NETHERLANDS"
 }, 
 {
  "lat": 50.4004305, 
  "lng": 7.6134754, 
  "CreateEvent": 1, 
  "name": "WHU", 
  "PushEvent": 6
 }, 
 {
  "name": "TOURS", 
  "DeleteEvent": 1, 
  "PushEvent": 8, 
  "lat": 47.3903853, 
  "lng": 0.6899713, 
  "CreateEvent": 2
 }, 
 {
  "lat": 54.3839678, 
  "lng": 30.4050142, 
  "PushEvent": 1, 
  "name": "BELARUS, VITEBSK", 
  "CreateEvent": 2
 }, 
 {
  "lat": 22.1919514, 
  "WatchEvent": 2, 
  "lng": 113.5381216, 
  "name": "MACAU"
 }, 
 {
  "lat": null, 
  "lng": null, 
  "name": "TRAVELING SALESMAN", 
  "PushEvent": 2
 }, 
 {
  "MemberEvent": 1, 
  "PullRequestReviewCommentEvent": 2, 
  "name": "MANCHESTER, UK", 
  "PullRequestEvent": 8, 
  "PushEvent": 204, 
  "IssueCommentEvent": 6, 
  "DeleteEvent": 1, 
  "ForkEvent": 3, 
  "lat": 53.4791466, 
  "WatchEvent": 8, 
  "CommitCommentEvent": 2, 
  "GollumEvent": 7, 
  "lng": -2.2447445, 
  "CreateEvent": 16
 }, 
 {
  "lat": 53.1984756, 
  "lng": 50.1142415, 
  "name": "SAMARA RUSSIA", 
  "PushEvent": 8
 }, 
 {
  "name": "GERMANY / DRESDEN", 
  "PullRequestEvent": 7, 
  "PushEvent": 21, 
  "IssueCommentEvent": 1, 
  "DeleteEvent": 5, 
  "CommitCommentEvent": 8, 
  "ForkEvent": 3, 
  "lat": 51.061257, 
  "lng": 13.8561197, 
  "CreateEvent": 10
 }, 
 {
  "lat": 48.4008273, 
  "WatchEvent": 1, 
  "lng": 11.7439565, 
  "name": "FREISING"
 }, 
 {
  "lat": 57.1369473, 
  "lng": 65.5819746, 
  "name": "TYUMEN RUSSIA", 
  "PushEvent": 6
 }, 
 {
  "lat": 47.9027336, 
  "WatchEvent": 4, 
  "lng": 1.9086066, 
  "name": "ORLEANS"
 }, 
 {
  "name": "MISSISSIPPI", 
  "PullRequestEvent": 1, 
  "IssueCommentEvent": 1, 
  "PushEvent": 70, 
  "lat": 32.9715645, 
  "lng": -89.7348497, 
  "IssuesEvent": 1
 }, 
 {
  "MemberEvent": 4, 
  "IssuesEvent": 10, 
  "PullRequestReviewCommentEvent": 160, 
  "name": "ITALY", 
  "PullRequestEvent": 100, 
  "IssueCommentEvent": 135, 
  "PushEvent": 389, 
  "DeleteEvent": 48, 
  "DownloadEvent": 12, 
  "CommitCommentEvent": 81, 
  "ForkEvent": 16, 
  "lat": 42.6384261, 
  "WatchEvent": 51, 
  "lng": 12.674297, 
  "GollumEvent": 16, 
  "CreateEvent": 220
 }, 
 {
  "lat": 51.8979282, 
  "lng": -8.4705806, 
  "name": "CORK IRELAND", 
  "CreateEvent": 1
 }, 
 {
  "lat": 41.3870186, 
  "MemberEvent": 1, 
  "lng": 2.1700437, 
  "name": "BARCELONA SPAIN", 
  "PushEvent": 2
 }, 
 {
  "MemberEvent": 1, 
  "name": "OSTRAVA", 
  "PushEvent": 7, 
  "lat": 49.8349139, 
  "lng": 18.2820084, 
  "CreateEvent": 1
 }, 
 {
  "ForkEvent": 1, 
  "PullRequestEvent": 2, 
  "PushEvent": 10, 
  "lat": 42.2625932, 
  "WatchEvent": 4, 
  "lng": -71.8022934, 
  "name": "WORCESTER, MA"
 }, 
 {
  "lat": 47.6038321, 
  "WatchEvent": 1, 
  "lng": -122.3300624, 
  "name": "SEATTLE, USA"
 }, 
 {
  "ForkEvent": 1, 
  "DeleteEvent": 2, 
  "PushEvent": 7, 
  "name": "MOSCOW/RUSSIA", 
  "lat": 55.5805786, 
  "lng": 37.4062709, 
  "CreateEvent": 5
 }, 
 {
  "ForkEvent": 1, 
  "PullRequestEvent": 1, 
  "PushEvent": 1, 
  "lat": -22.90556, 
  "lng": -47.06083, 
  "name": "CAMPINAS, SP - BRASIL"
 }, 
 {
  "name": "QUEBEC CITY", 
  "PushEvent": 1, 
  "lat": 52.6329801, 
  "WatchEvent": 2, 
  "lng": 1.3154734, 
  "ForkEvent": 1
 }, 
 {
  "lat": 32.3018217, 
  "lng": -64.7603583, 
  "name": "BERMUDA", 
  "PushEvent": 7
 }, 
 {
  "lat": 57.487185, 
  "lng": 18.5057724, 
  "name": "+1 585", 
  "IssueCommentEvent": 1
 }, 
 {
  "PullRequestEvent": 1, 
  "lat": 33.5092104, 
  "lng": -111.8990328, 
  "name": "SCOTTSDALE, ARIZONA", 
  "PushEvent": 1
 }, 
 {
  "ForkEvent": 1, 
  "PushEvent": 10, 
  "name": "GUANGZHOU,CHINA", 
  "lat": 23.1229013, 
  "WatchEvent": 1, 
  "lng": 113.2529963, 
  "CreateEvent": 1
 }, 
 {
  "lat": 34.7987689, 
  "WatchEvent": 1, 
  "lng": 48.5109696, 
  "name": "HAMEDAN , IRAN"
 }, 
 {
  "lat": 39.6021415, 
  "lng": -104.919127640587, 
  "name": "CENTENNIAL, CO", 
  "PushEvent": 3
 }, 
 {
  "ForkEvent": 2, 
  "PullRequestEvent": 1, 
  "IssueCommentEvent": 1, 
  "PushEvent": 3, 
  "lat": 59.9606739, 
  "WatchEvent": 1, 
  "lng": 30.1586551, 
  "IssuesEvent": 6, 
  "name": "SPB"
 }, 
 {
  "name": "NEW LONDON, CT", 
  "PushEvent": 6, 
  "lat": 41.331748, 
  "WatchEvent": 4, 
  "lng": -72.0965513887082, 
  "CreateEvent": 1
 }, 
 {
  "name": "LUGANO, SWITZERLAND", 
  "PushEvent": 22, 
  "lat": 46.004971, 
  "WatchEvent": 2, 
  "lng": 8.9520378, 
  "CreateEvent": 2
 }, 
 {
  "lat": 49.9999952, 
  "lng": 8.2710237, 
  "name": "MAINZ", 
  "PushEvent": 1
 }, 
 {
  "lat": -21.9549806, 
  "lng": -49.0232348, 
  "ForkEvent": 1, 
  "name": "SP/BRASIL", 
  "PushEvent": 4
 }, 
 {
  "lat": null, 
  "lng": null, 
  "name": "LONDON, UK & SAN FRANCISCO, CA", 
  "ForkEvent": 1
 }, 
 {
  "lat": 27.15586325, 
  "lng": 75.7475900730232, 
  "name": "JAIPUR", 
  "PushEvent": 5
 }, 
 {
  "lat": null, 
  "lng": null, 
  "CreateEvent": 1, 
  "name": "RU, VRN", 
  "PushEvent": 1
 }, 
 {
  "name": "V\u00e4XJ\u00f6, SWEDEN", 
  "IssueCommentEvent": 9, 
  "PushEvent": 64, 
  "lat": 56.92115405, 
  "WatchEvent": 6, 
  "lng": 14.9040271321977, 
  "IssuesEvent": 14, 
  "CreateEvent": 1
 }, 
 {
  "lat": 43.0729465, 
  "lng": -88.3929878419356, 
  "CreateEvent": 13, 
  "name": "DELAFIELD, WI USA", 
  "PushEvent": 22
 }, 
 {
  "MemberEvent": 2, 
  "name": "BODEGRAVEN", 
  "PullRequestEvent": 1, 
  "PushEvent": 10, 
  "lat": 52.0834069, 
  "lng": 4.751088, 
  "CreateEvent": 8
 }, 
 {
  "lat": 51.950146, 
  "WatchEvent": 1, 
  "lng": 7.61329946871883, 
  "name": "M\u00fcNSTER"
 }, 
 {
  "ForkEvent": 5, 
  "PullRequestEvent": 12, 
  "PushEvent": 46, 
  "name": "LAS VEGAS, NV", 
  "lat": 36.145204, 
  "WatchEvent": 7, 
  "lng": -115.1611806, 
  "CreateEvent": 1
 }, 
 {
  "ForkEvent": 2, 
  "PullRequestEvent": 1, 
  "PushEvent": 26, 
  "name": "SHANGHAI CHINA", 
  "lat": 31.2253441, 
  "WatchEvent": 12, 
  "lng": 121.4888922, 
  "GollumEvent": 1, 
  "CreateEvent": 1
 }, 
 {
  "MemberEvent": 1, 
  "name": "ALBANY, NY", 
  "PullRequestEvent": 1, 
  "IssueCommentEvent": 1, 
  "PushEvent": 18, 
  "lat": 42.6511674, 
  "WatchEvent": 2, 
  "lng": -73.754968
 }, 
 {
  "lat": 46.6551209, 
  "WatchEvent": 1, 
  "lng": 32.6131115, 
  "name": "HERSON"
 }, 
 {
  "name": "GREATER MANCHESTER, UK", 
  "PushEvent": 1, 
  "IssueCommentEvent": 2, 
  "lat": 53.50652435, 
  "lng": -2.33744027914629, 
  "IssuesEvent": 1
 }, 
 {
  "lat": 41.613822, 
  "lng": -85.791469, 
  "name": "127.0.0.1", 
  "CreateEvent": 1
 }, 
 {
  "DownloadEvent": 2, 
  "ForkEvent": 3, 
  "PullRequestEvent": 3, 
  "IssueCommentEvent": 5, 
  "PushEvent": 6, 
  "lat": 45.709097, 
  "WatchEvent": 11, 
  "lng": -68.8590201, 
  "IssuesEvent": 1, 
  "name": "MAINE"
 }, 
 {
  "lat": 34.6266576, 
  "lng": -115.9858378, 
  "PushEvent": 15, 
  "name": "SIBERIA", 
  "GollumEvent": 25
 }, 
 {
  "lat": 56.4861843, 
  "lng": 84.976609, 
  "name": "KYEV", 
  "PushEvent": 1
 }, 
 {
  "lat": null, 
  "WatchEvent": 2, 
  "lng": null, 
  "name": "PARIS AREA, FRANCE"
 }, 
 {
  "name": "GLIWICE", 
  "DeleteEvent": 2, 
  "PushEvent": 10, 
  "lat": 50.30079, 
  "lng": 18.6618605218769, 
  "CreateEvent": 4
 }, 
 {
  "name": "MARYLAND, USA", 
  "DeleteEvent": 1, 
  "IssueCommentEvent": 4, 
  "PushEvent": 26, 
  "lat": 39.5162234, 
  "WatchEvent": 1, 
  "lng": -76.9382069, 
  "IssuesEvent": 1, 
  "CreateEvent": 4
 }, 
 {
  "lat": -33.8548157, 
  "lng": 151.2164539, 
  "name": "SYDNEY, AUSTRALIA.", 
  "PushEvent": 1
 }, 
 {
  "lat": 40.4058233, 
  "lng": -3.7791084, 
  "name": "LOS ANGELES AREA", 
  "PushEvent": 9
 }, 
 {
  "lat": 53.1998079, 
  "WatchEvent": 1, 
  "lng": 45.0000428, 
  "name": "RUSSIA, PENZA"
 }, 
 {
  "lat": 56.1496278, 
  "lng": 10.2134046, 
  "name": "\u00c5RHUS", 
  "PushEvent": 12
 }, 
 {
  "PushEvent": 3, 
  "ForkEvent": 1, 
  "PullRequestEvent": 3, 
  "IssueCommentEvent": 3, 
  "name": "PLZEN, CZECH REPUBLIC", 
  "CommitCommentEvent": 1, 
  "lat": 49.7477415, 
  "lng": 13.3775249, 
  "CreateEvent": 1
 }, 
 {
  "lat": -30.0330556, 
  "WatchEvent": 1, 
  "lng": -51.23, 
  "name": "PORTO ALEGRE, RS - BRAZIL"
 }, 
 {
  "lat": 42.4415238, 
  "WatchEvent": 2, 
  "lng": 19.2621081, 
  "name": "PODGORICA"
 }, 
 {
  "lat": 46.586499, 
  "WatchEvent": 1, 
  "lng": -87.464937, 
  "name": "HK", 
  "ForkEvent": 1
 }, 
 {
  "MemberEvent": 1, 
  "name": "RENNES (FRANCE)", 
  "PushEvent": 31, 
  "lat": 48.1113589, 
  "WatchEvent": 1, 
  "lng": -1.680009, 
  "CreateEvent": 1
 }, 
 {
  "lat": 41.7759324, 
  "lng": -72.5214755, 
  "CommitCommentEvent": 4, 
  "name": "MANCHESTER, CT", 
  "PushEvent": 14
 }, 
 {
  "lat": 36.0391456, 
  "lng": -114.9819235, 
  "name": "HENDERSON,NV", 
  "PushEvent": 2
 }, 
 {
  "lat": 16.0667416, 
  "lng": 108.02338268954, 
  "name": "DA NANG, VIET NAM", 
  "CreateEvent": 1
 }, 
 {
  "lat": 48.0686579, 
  "lng": -1.73182031709104, 
  "CreateEvent": 5, 
  "name": "BRETAGNE (BRITANNY), FRANCE", 
  "PushEvent": 7
 }, 
 {
  "lat": 49.30965715, 
  "lng": -122.806358788276, 
  "name": "MDN", 
  "PushEvent": 2
 }, 
 {
  "lat": 51.0630273, 
  "lng": -0.3295028, 
  "PushEvent": 1, 
  "name": "HORSHAM, UK", 
  "ForkEvent": 1
 }, 
 {
  "lat": 42.3370414, 
  "lng": -71.2092214, 
  "name": "NEWTON, MA", 
  "ForkEvent": 1
 }, 
 {
  "lat": 39.629526, 
  "WatchEvent": 1, 
  "lng": -79.9558968, 
  "name": "MORGANTOWN, WV, USA"
 }, 
 {
  "lat": null, 
  "lng": null, 
  "PushEvent": 2, 
  "name": "KYOTO CITY, KYOTO PREF, JAPAN", 
  "CreateEvent": 2
 }, 
 {
  "MemberEvent": 2, 
  "PushEvent": 290, 
  "ForkEvent": 12, 
  "GollumEvent": 2, 
  "PullRequestEvent": 7, 
  "IssueCommentEvent": 24, 
  "name": "EDMONTON, AB, CANADA", 
  "DeleteEvent": 1, 
  "CommitCommentEvent": 23, 
  "lat": 53.5558285, 
  "WatchEvent": 2, 
  "lng": -113.557352747797, 
  "IssuesEvent": 3, 
  "CreateEvent": 18
 }, 
 {
  "name": "THE ROSE CITY", 
  "DeleteEvent": 1, 
  "PushEvent": 20, 
  "lat": 30.1027119, 
  "lng": -94.0518443, 
  "CreateEvent": 1
 }, 
 {
  "lat": 50.3980316, 
  "WatchEvent": 1, 
  "lng": 18.6276936, 
  "name": "PYSKOWICE, POLAND", 
  "PushEvent": 10
 }, 
 {
  "lat": 41.21607745, 
  "lng": -112.008048404781, 
  "name": "OGDEN, UT", 
  "ForkEvent": 1
 }, 
 {
  "lat": -19.9227318, 
  "lng": -43.9450948, 
  "CreateEvent": 1, 
  "name": "BELO HORIZONTE - MINAS GERAIS - BRASIL", 
  "PushEvent": 4
 }, 
 {
  "MemberEvent": 1, 
  "IssuesEvent": 2, 
  "name": "HANNOVER, GERMANY", 
  "PullRequestEvent": 5, 
  "IssueCommentEvent": 27, 
  "PushEvent": 52, 
  "lat": 52.3744779, 
  "WatchEvent": 3, 
  "lng": 9.7385532, 
  "GollumEvent": 2, 
  "CreateEvent": 4
 }, 
 {
  "lat": 55.5805786, 
  "lng": 37.4062709, 
  "name": "MOSCOW, RUSSIAN FEDERATION", 
  "PushEvent": 1
 }, 
 {
  "name": "SZCZECIN POLAND", 
  "PushEvent": 5, 
  "lat": 53.42969955, 
  "WatchEvent": 1, 
  "lng": 14.5929033646712, 
  "CreateEvent": 2
 }, 
 {
  "name": "LITTLETON", 
  "PullRequestEvent": 3, 
  "PushEvent": 2, 
  "lat": 39.6021065, 
  "WatchEvent": 1, 
  "lng": -104.987727336286, 
  "CreateEvent": 1
 }, 
 {
  "lat": 13.0804251, 
  "WatchEvent": 1, 
  "lng": 80.281807, 
  "name": "CHENNAI / INDIA"
 }, 
 {
  "PushEvent": 22, 
  "ForkEvent": 3, 
  "PullRequestEvent": 11, 
  "IssueCommentEvent": 7, 
  "name": "SOUTHERN SWEDEN", 
  "CommitCommentEvent": 2, 
  "lat": null, 
  "lng": null, 
  "CreateEvent": 7
 }, 
 {
  "PushEvent": 20, 
  "DownloadEvent": 2, 
  "PullRequestEvent": 4, 
  "IssueCommentEvent": 8, 
  "name": "NEW YORK,NY", 
  "lat": 40.7305991, 
  "lng": -73.9865812, 
  "CreateEvent": 8
 }, 
 {
  "lat": 54.7023545, 
  "lng": -3.2765753, 
  "IssuesEvent": 2, 
  "name": "U.K"
 }, 
 {
  "lat": -38.0072872, 
  "WatchEvent": 1, 
  "lng": -57.5595802, 
  "name": "MAR DEL PLATA, BUENOS AIRES, ARGENTINA"
 }, 
 {
  "lat": 39.9272459, 
  "lng": 32.8520044, 
  "name": "ANKARA / TURKEY", 
  "ForkEvent": 1
 }, 
 {
  "lat": null, 
  "WatchEvent": 1, 
  "lng": null, 
  "name": "INTERWEBS / CAPE TOWN"
 }, 
 {
  "lat": 37.166423, 
  "lng": -94.846423, 
  "name": "SOUTH FLORIDA", 
  "PushEvent": 2
 }, 
 {
  "lat": null, 
  "WatchEvent": 2, 
  "lng": null, 
  "name": "FLORIANOPOLIS, SC, BASIL"
 }, 
 {
  "name": "LIVERPOOL, UK", 
  "PullRequestEvent": 1, 
  "PushEvent": 6, 
  "lat": 53.4054719, 
  "WatchEvent": 1, 
  "lng": -2.9805393, 
  "CreateEvent": 2
 }, 
 {
  "name": "DALIAN LIAONING CHINA", 
  "PullRequestEvent": 79, 
  "PushEvent": 63, 
  "DeleteEvent": 26, 
  "lat": 39.46740065, 
  "lng": 121.937514830608, 
  "CreateEvent": 67
 }, 
 {
  "PublicEvent": 1, 
  "IssuesEvent": 3, 
  "DownloadEvent": 24, 
  "name": "EDINBURGH, UK", 
  "PullRequestEvent": 62, 
  "IssueCommentEvent": 54, 
  "PushEvent": 546, 
  "DeleteEvent": 28, 
  "ForkEvent": 9, 
  "WatchEvent": 3, 
  "lat": 55.9483399, 
  "CommitCommentEvent": 3, 
  "lng": -3.1932723, 
  "GollumEvent": 5, 
  "PullRequestReviewCommentEvent": 1, 
  "CreateEvent": 65
 }, 
 {
  "lat": 16.15499135, 
  "lng": 74.8921003930749, 
  "CreateEvent": 1, 
  "name": "BELGAUM, INDIA", 
  "GollumEvent": 1
 }, 
 {
  "lat": 44.1634663, 
  "lng": -93.9993505, 
  "name": "MANKATO, MN", 
  "PushEvent": 2
 }, 
 {
  "lat": 52.3752067, 
  "lng": 4.9009395, 
  "name": "SAN FRANCISCO & AMSTERDAM", 
  "PushEvent": 1
 }, 
 {
  "lat": 33.1958696, 
  "WatchEvent": 3, 
  "lng": -117.3794834, 
  "name": "OCEANSIDE, CALIFORNIA", 
  "ForkEvent": 2
 }, 
 {
  "lat": null, 
  "lng": null, 
  "name": "GUANGZHOU, P.R.CHINA", 
  "ForkEvent": 1
 }, 
 {
  "lat": null, 
  "lng": null, 
  "name": "AT 3 NM FROM THE BIOS. :)", 
  "PushEvent": 2
 }, 
 {
  "ForkEvent": 4, 
  "GollumEvent": 2, 
  "PullRequestEvent": 3, 
  "IssueCommentEvent": 1, 
  "PushEvent": 72, 
  "name": "TALLINN, ESTONIA", 
  "lat": 59.4372155, 
  "WatchEvent": 5, 
  "lng": 24.7453688, 
  "IssuesEvent": 10, 
  "CreateEvent": 7
 }, 
 {
  "lat": 54.0, 
  "lng": -72.0, 
  "name": "QUEBEC", 
  "CreateEvent": 1
 }, 
 {
  "name": "SEOUL, REPUBLIC OF KOREA", 
  "PushEvent": 11, 
  "lat": 37.5710824, 
  "WatchEvent": 1, 
  "lng": 126.9953036, 
  "CreateEvent": 1
 }, 
 {
  "MemberEvent": 3, 
  "DownloadEvent": 6, 
  "name": "POZNA\u0144, POLAND", 
  "PullRequestEvent": 19, 
  "IssueCommentEvent": 53, 
  "PushEvent": 217, 
  "DeleteEvent": 3, 
  "CommitCommentEvent": 1, 
  "lat": 52.3996888, 
  "WatchEvent": 5, 
  "lng": 16.9213977735236, 
  "IssuesEvent": 56, 
  "PullRequestReviewCommentEvent": 1, 
  "CreateEvent": 14
 }, 
 {
  "lat": 10.7827445, 
  "lng": 106.6948984, 
  "CreateEvent": 1, 
  "name": "HCMC", 
  "PushEvent": 12
 }, 
 {
  "lat": 51.1172352, 
  "lng": 17.0351947, 
  "IssuesEvent": 1, 
  "name": "POLAND WROC\u0142AW"
 }, 
 {
  "lat": 51.1263706, 
  "WatchEvent": 2, 
  "lng": 16.9780831265633, 
  "IssuesEvent": 1, 
  "name": "WROCLAW/ POLAND"
 }, 
 {
  "PublicEvent": 1, 
  "name": "192.168.1.1", 
  "PullRequestEvent": 2, 
  "PushEvent": 68, 
  "CommitCommentEvent": 47, 
  "lat": null, 
  "lng": null, 
  "CreateEvent": 1
 }, 
 {
  "lat": null, 
  "lng": null, 
  "name": "FRANKFURT/MAIN, GERMANY", 
  "PushEvent": 3
 }, 
 {
  "lat": 56.1138064, 
  "lng": 10.1724987, 
  "CreateEvent": 6, 
  "name": "HOLME, \u00c5RHUS, DENMARK", 
  "PushEvent": 10
 }, 
 {
  "lat": null, 
  "WatchEvent": 1, 
  "lng": null, 
  "name": "WACO, TX, USA / PRAGUE, CZE"
 }, 
 {
  "DownloadEvent": 7, 
  "DeleteEvent": 2, 
  "IssueCommentEvent": 2, 
  "PushEvent": 56, 
  "name": "TOKYO/JAPAN", 
  "ForkEvent": 2, 
  "lat": 35.6800712, 
  "WatchEvent": 11, 
  "lng": 139.7685224, 
  "IssuesEvent": 20, 
  "CreateEvent": 16
 }, 
 {
  "MemberEvent": 2, 
  "name": "SASKATOON, SASKATCHEWAN", 
  "PushEvent": 14, 
  "lat": 52.1303794, 
  "lng": -106.6605124, 
  "CreateEvent": 1
 }, 
 {
  "ForkEvent": 2, 
  "PullRequestEvent": 6, 
  "IssueCommentEvent": 2, 
  "PushEvent": 24, 
  "name": "CINCINNATI, OHIO", 
  "DeleteEvent": 2, 
  "lat": 39.1014537, 
  "WatchEvent": 1, 
  "lng": -84.5124602, 
  "IssuesEvent": 1, 
  "CreateEvent": 7
 }, 
 {
  "lat": 45.9149876, 
  "lng": 6.134111, 
  "CommitCommentEvent": 1, 
  "name": "FRANCE - ANNECY", 
  "IssueCommentEvent": 1
 }, 
 {
  "name": "BISHKEK/KYRGYZSTAN", 
  "PushEvent": 2, 
  "lat": 42.8767228, 
  "lng": 74.6070383, 
  "IssuesEvent": 5, 
  "CreateEvent": 1
 }, 
 {
  "lat": 43.4113604, 
  "lng": -106.2800243, 
  "IssuesEvent": 2, 
  "name": "MIDWEST, USA", 
  "IssueCommentEvent": 2
 }, 
 {
  "lat": 29.9530344, 
  "WatchEvent": 1, 
  "lng": 120.519462, 
  "name": "CHINA, ZHEJIANG"
 }, 
 {
  "lat": 49.20252515, 
  "lng": 3.54811579448989, 
  "IssuesEvent": 1, 
  "name": "U.S.A."
 }, 
 {
  "lat": 40.8506962, 
  "WatchEvent": 1, 
  "lng": 14.2463172, 
  "name": "NAPOLI"
 }, 
 {
  "lat": 40.5117699, 
  "lng": -88.9944815, 
  "CreateEvent": 1, 
  "name": "NORMAL, IL", 
  "PushEvent": 3
 }, 
 {
  "lat": 46.6228162, 
  "lng": 14.3079604, 
  "CreateEvent": 1, 
  "name": "KLAGENFURT", 
  "PushEvent": 2
 }, 
 {
  "lat": null, 
  "WatchEvent": 2, 
  "lng": null, 
  "name": "PLANET OF THE HAIRLESS MONKEYS"
 }, 
 {
  "lat": 40.521893, 
  "WatchEvent": 1, 
  "lng": -111.9391023, 
  "name": "RIVERTON, UTAH"
 }, 
 {
  "lat": 36.414858, 
  "WatchEvent": 1, 
  "lng": 139.787189, 
  "name": "UTSUNOMIYA, TOCHIGI, JAPAN"
 }, 
 {
  "name": "NAPERVILLE, IL", 
  "PullRequestEvent": 2, 
  "IssueCommentEvent": 1, 
  "lat": 41.7824837, 
  "lng": -88.1495225, 
  "CreateEvent": 1
 }, 
 {
  "MemberEvent": 4, 
  "name": "SARATOGA SPRINGS, NY", 
  "PushEvent": 25, 
  "lat": 43.0831301, 
  "lng": -73.7845651, 
  "CreateEvent": 5
 }, 
 {
  "lat": 59.9132694, 
  "lng": 10.7391112, 
  "IssuesEvent": 1, 
  "name": "OSLO NORWAY", 
  "PushEvent": 3
 }, 
 {
  "ForkEvent": 3, 
  "CreateEvent": 1, 
  "PullRequestEvent": 3, 
  "IssueCommentEvent": 2, 
  "PushEvent": 4, 
  "lat": 32.8101876, 
  "lng": -79.8808224, 
  "IssuesEvent": 1, 
  "name": "LOWCOUNTRY, SC"
 }, 
 {
  "lat": 23.21490625, 
  "lng": 72.6723009073195, 
  "IssuesEvent": 1, 
  "name": "GANDHINAGAR"
 }, 
 {
  "lat": null, 
  "lng": null, 
  "DownloadEvent": 11, 
  "name": "SWEDEN (PREVIOUSLY ILLINOIS)", 
  "PushEvent": 14
 }, 
 {
  "PublicEvent": 1, 
  "PushEvent": 37, 
  "ForkEvent": 1, 
  "IssueCommentEvent": 2, 
  "name": "CHARLOTTE, NC", 
  "DownloadEvent": 1, 
  "CommitCommentEvent": 1, 
  "lat": 35.3314525, 
  "WatchEvent": 5, 
  "lng": -80.9398554230769, 
  "IssuesEvent": 1, 
  "CreateEvent": 9
 }, 
 {
  "lat": 35.223234, 
  "WatchEvent": 3, 
  "lng": -118.953616630358, 
  "name": "BAKERSFIELD"
 }, 
 {
  "name": "AUBURN, WA", 
  "PushEvent": 13, 
  "lat": 47.3073905, 
  "WatchEvent": 1, 
  "lng": -122.229805, 
  "IssuesEvent": 7, 
  "CreateEvent": 4
 }, 
 {
  "ForkEvent": 1, 
  "CreateEvent": 1, 
  "PullRequestEvent": 3, 
  "PushEvent": 1, 
  "lat": 47.5990002, 
  "lng": -122.156399587582, 
  "IssuesEvent": 4, 
  "name": "BELLEVUE"
 }, 
 {
  "lat": 44.8801177, 
  "lng": -0.5113273, 
  "name": "FRANCE BORDEAUX", 
  "PushEvent": 1
 }, 
 {
  "lat": 51.99829415, 
  "lng": 4.37430255349551, 
  "name": "DELFT UNIVERSITY OF TECHNOLOGY", 
  "PushEvent": 45
 }, 
 {
  "lat": 32.03805805, 
  "lng": 118.84742796689, 
  "name": "CHINA.NANJING", 
  "ForkEvent": 1
 }, 
 {
  "MemberEvent": 4, 
  "name": "RYBNIK, POLAND", 
  "PushEvent": 20, 
  "lat": 50.11060705, 
  "lng": 18.5525442377335, 
  "CreateEvent": 2
 }, 
 {
  "lat": -36.50775635, 
  "WatchEvent": 1, 
  "lng": 174.540946482123, 
  "name": "AUCKLAND NZ"
 }, 
 {
  "lat": 25.7736111, 
  "WatchEvent": 1, 
  "lng": -80.1872222, 
  "name": "DOWNTOWN MIAMI"
 }, 
 {
  "lat": 45.91826635, 
  "lng": -64.3782714282497, 
  "CreateEvent": 1, 
  "name": "SACKVILLE, NEW BRUNSWICK", 
  "PushEvent": 1
 }, 
 {
  "MemberEvent": 1, 
  "name": "PITTSBURGH, PA", 
  "GollumEvent": 1, 
  "IssueCommentEvent": 7, 
  "PushEvent": 133, 
  "CommitCommentEvent": 3, 
  "ForkEvent": 2, 
  "lat": 40.4416941, 
  "WatchEvent": 17, 
  "lng": -79.9900861, 
  "IssuesEvent": 3, 
  "CreateEvent": 7
 }, 
 {
  "lat": 40.0149856, 
  "lng": -105.2705456, 
  "name": "BOULDER, CO - UNITED STATES", 
  "PushEvent": 1
 }, 
 {
  "lat": 47.2248606, 
  "lng": 39.7022857, 
  "name": "RUSSIA, ROSTOV-ON-DON", 
  "PushEvent": 3
 }, 
 {
  "lat": 49.3089887, 
  "WatchEvent": 3, 
  "lng": 14.147769, 
  "name": "P\u00edSEK"
 }, 
 {
  "lat": -29.9470633, 
  "WatchEvent": 2, 
  "lng": -51.1035649, 
  "name": "CACHOEIRINHA - RS"
 }, 
 {
  "name": "MUNICH, GERMANY", 
  "GollumEvent": 10, 
  "PullRequestEvent": 32, 
  "IssueCommentEvent": 77, 
  "PushEvent": 223, 
  "DeleteEvent": 12, 
  "ForkEvent": 13, 
  "lat": 48.1372719, 
  "WatchEvent": 29, 
  "CommitCommentEvent": 4, 
  "IssuesEvent": 28, 
  "lng": 11.5754815, 
  "CreateEvent": 28
 }, 
 {
  "lat": 51.2088871, 
  "lng": 3.4452214, 
  "PushEvent": 1, 
  "name": "MALDEGEM", 
  "ForkEvent": 1
 }, 
 {
  "lat": 51.6616158, 
  "lng": 7.8166354806064, 
  "name": "HAMM", 
  "PushEvent": 2
 }, 
 {
  "lat": 41.8756208, 
  "lng": -87.6243706, 
  "CreateEvent": 1, 
  "name": "CHICAGO, ILLINOIS, USA", 
  "PushEvent": 8
 }, 
 {
  "MemberEvent": 1, 
  "DownloadEvent": 9, 
  "ForkEvent": 13, 
  "PullRequestEvent": 8, 
  "IssueCommentEvent": 4, 
  "PushEvent": 80, 
  "name": "HYDERABAD", 
  "lat": 17.4020214, 
  "WatchEvent": 9, 
  "lng": 78.4584862543268, 
  "IssuesEvent": 27, 
  "CreateEvent": 16
 }, 
 {
  "name": "MADRID - SPAIN", 
  "IssueCommentEvent": 1, 
  "lat": 40.4167047, 
  "lng": -3.7035825, 
  "GollumEvent": 1, 
  "CreateEvent": 1
 }, 
 {
  "lat": 42.3486635, 
  "lng": -83.0567375, 
  "CreateEvent": 1, 
  "name": "DETROIT, MI, USA", 
  "PushEvent": 2
 }, 
 {
  "lat": 35.4044815, 
  "lng": 139.312884683356, 
  "name": "KANAGAWA, JAPAN.", 
  "PushEvent": 11
 }, 
 {
  "lat": -1.45056, 
  "lng": -48.4682453, 
  "name": "BELEM, PA, BRAZIL", 
  "ForkEvent": 1
 }, 
 {
  "lat": null, 
  "lng": null, 
  "name": "PHILADELPHI-ISH, PA", 
  "CreateEvent": 1
 }, 
 {
  "lat": 37.7647993, 
  "WatchEvent": 2, 
  "lng": -122.4629897, 
  "name": "SF, CA", 
  "ForkEvent": 1
 }, 
 {
  "lat": 52.2319237, 
  "WatchEvent": 1, 
  "lng": 21.0067265, 
  "name": "WARSZAWA, POLAND"
 }, 
 {
  "lat": null, 
  "WatchEvent": 1, 
  "lng": null, 
  "name": "GUIDLFORD"
 }, 
 {
  "lat": 43.715925, 
  "WatchEvent": 2, 
  "lng": 10.4018984, 
  "name": "PISA, ITALY", 
  "IssueCommentEvent": 1
 }, 
 {
  "lat": 45.4666211, 
  "lng": 9.1906166, 
  "name": "MILANO, ITALIA", 
  "PushEvent": 4
 }, 
 {
  "lat": 39.830107, 
  "WatchEvent": 2, 
  "lng": -74.978493, 
  "name": "CENTRAL NEW JERSEY"
 }, 
 {
  "lat": 35.7730076, 
  "WatchEvent": 5, 
  "lng": -86.2820081, 
  "name": "TENNESSEE", 
  "PushEvent": 4
 }, 
 {
  "lat": 45.7726546, 
  "lng": 19.1144811, 
  "name": "SOMBOR, SERBIA", 
  "CreateEvent": 1
 }, 
 {
  "lat": 39.1670396, 
  "lng": -86.5342881, 
  "name": "BLOOMINGTON, INDIANA USA", 
  "GollumEvent": 1
 }, 
 {
  "lat": 25.0462242, 
  "WatchEvent": 1, 
  "lng": 121.5174819, 
  "name": "TAPEI, TAIWAN", 
  "CreateEvent": 1
 }, 
 {
  "lat": 49.566667, 
  "WatchEvent": 5, 
  "lng": -121.433333, 
  "name": "YALE"
 }, 
 {
  "lat": 32.647691, 
  "WatchEvent": 2, 
  "lng": -96.9170435699782, 
  "name": "DUNCANVILLE, TX"
 }, 
 {
  "lat": 40.1045549, 
  "lng": -74.951279, 
  "CreateEvent": 2, 
  "name": "BENSALEM, PA", 
  "PushEvent": 3
 }, 
 {
  "lat": 36.8468146, 
  "lng": -76.2852183, 
  "CreateEvent": 1, 
  "name": "NORFOLK, VA", 
  "PushEvent": 5
 }, 
 {
  "MemberEvent": 3, 
  "PublicEvent": 1, 
  "IssuesEvent": 34, 
  "DownloadEvent": 5, 
  "ForkEvent": 24, 
  "PullRequestEvent": 21, 
  "IssueCommentEvent": 20, 
  "PushEvent": 939, 
  "name": "NORWAY", 
  "DeleteEvent": 4, 
  "CommitCommentEvent": 6, 
  "lat": 60.5000209, 
  "WatchEvent": 20, 
  "lng": 9.0999715, 
  "GollumEvent": 68, 
  "CreateEvent": 34
 }, 
 {
  "name": "SEATTLE, WA, USA", 
  "GollumEvent": 41, 
  "PullRequestEvent": 14, 
  "IssueCommentEvent": 96, 
  "PushEvent": 329, 
  "ForkEvent": 2, 
  "lat": 47.6038321, 
  "WatchEvent": 8, 
  "CommitCommentEvent": 2, 
  "IssuesEvent": 50, 
  "lng": -122.3300624, 
  "CreateEvent": 57
 }, 
 {
  "ForkEvent": 6, 
  "PullRequestEvent": 10, 
  "PushEvent": 123, 
  "lat": -8.4666145, 
  "WatchEvent": 4, 
  "lng": -51.3333976, 
  "name": "BRASILIA, BRAZIL"
 }, 
 {
  "MemberEvent": 1, 
  "name": "SAN JOSE CA", 
  "PullRequestEvent": 1, 
  "IssueCommentEvent": 1, 
  "PushEvent": 2, 
  "lat": 37.3438502, 
  "lng": -121.8831349, 
  "GollumEvent": 1
 }, 
 {
  "lat": null, 
  "lng": null, 
  "name": "HERE, THERE, AND EVERYWHERE", 
  "ForkEvent": 1
 }, 
 {
  "lat": 48.8437486, 
  "WatchEvent": 1, 
  "lng": 2.1853699, 
  "name": "GARCHES (92380)", 
  "ForkEvent": 1
 }, 
 {
  "ForkEvent": 1, 
  "PushEvent": 21, 
  "lat": 30.2665643, 
  "WatchEvent": 2, 
  "lng": 120.149335, 
  "name": "HANGZHOU,ZHEJIANG,CN"
 }, 
 {
  "lat": 18.6979546, 
  "WatchEvent": 1, 
  "lng": 98.6179620529052, 
  "name": "CHIANG MAI, THAILAND", 
  "PushEvent": 2
 }, 
 {
  "lat": 38.111051, 
  "WatchEvent": 1, 
  "lng": 13.335745, 
  "name": "PALERMO, ITALY"
 }, 
 {
  "lat": 35.682958, 
  "WatchEvent": 1, 
  "lng": 139.5591791, 
  "name": "MITAKA-SHI TOKYO JAPAN"
 }, 
 {
  "lat": 14.5568853, 
  "lng": 121.023532, 
  "name": "MAKATI, PHILIPPINES", 
  "PushEvent": 21
 }, 
 {
  "lat": 40.2125258, 
  "lng": -92.8135338, 
  "name": "MINES", 
  "PushEvent": 2
 }, 
 {
  "ForkEvent": 1, 
  "PushEvent": 27, 
  "name": "CHN", 
  "lat": 35.8783989, 
  "WatchEvent": 1, 
  "lng": 127.1200027, 
  "CreateEvent": 6
 }, 
 {
  "lat": 52.2643004, 
  "lng": 10.5251064, 
  "IssuesEvent": 1, 
  "name": "GERMANY, BRUNSWICK"
 }, 
 {
  "lat": -32.0520333, 
  "WatchEvent": 2, 
  "lng": 115.7452703, 
  "name": "FREMANTLE, WESTERN AUSTRALIA"
 }, 
 {
  "ForkEvent": 1, 
  "PushEvent": 2, 
  "IssueCommentEvent": 2, 
  "lat": 52.1143453, 
  "lng": 0.0313311, 
  "IssuesEvent": 2, 
  "name": "SOUTH UK"
 }, 
 {
  "lat": 30.0488185, 
  "WatchEvent": 1, 
  "lng": 31.2436663, 
  "name": "CAIRO"
 }, 
 {
  "lat": 30.1733046, 
  "WatchEvent": 1, 
  "lng": -95.5047303, 
  "name": "THE WOODLANDS, TX"
 }, 
 {
  "lat": 39.55773285, 
  "WatchEvent": 1, 
  "lng": -0.299777427158372, 
  "name": "VALENCIA", 
  "PushEvent": 1
 }, 
 {
  "lat": null, 
  "WatchEvent": 1, 
  "lng": null, 
  "name": "BRNO, MORAVIA, CZECH REPUBLIC"
 }, 
 {
  "lat": -28.5912315, 
  "lng": -57.9394658, 
  "name": "CORRIENTES, ARGENTINA", 
  "ForkEvent": 1
 }, 
 {
  "lat": 46.3938843, 
  "lng": -63.7887041, 
  "CreateEvent": 1, 
  "name": "SUMMERSIDE, PEI, CANADA", 
  "PushEvent": 7
 }, 
 {
  "name": "OTTAWA, ON CANADA", 
  "PullRequestEvent": 11, 
  "IssueCommentEvent": 21, 
  "PushEvent": 20, 
  "DeleteEvent": 3, 
  "ForkEvent": 2, 
  "lat": 45.4210328, 
  "WatchEvent": 2, 
  "CommitCommentEvent": 2, 
  "IssuesEvent": 6, 
  "lng": -75.6900219, 
  "CreateEvent": 22
 }, 
 {
  "lat": 36.0, 
  "lng": 109.0, 
  "name": "SHAANXI, CHINA", 
  "PushEvent": 4
 }, 
 {
  "lat": 43.3842987, 
  "lng": -80.3098064, 
  "CreateEvent": 1, 
  "name": "CAMBRIDGE, ONTARIO, CANADA", 
  "PushEvent": 2
 }, 
 {
  "DownloadEvent": 14, 
  "name": "AUSTRALIA", 
  "GollumEvent": 11, 
  "PullRequestEvent": 44, 
  "IssueCommentEvent": 54, 
  "PushEvent": 448, 
  "DeleteEvent": 12, 
  "ForkEvent": 14, 
  "lat": -27.2692649, 
  "WatchEvent": 25, 
  "CommitCommentEvent": 7, 
  "IssuesEvent": 22, 
  "lng": 136.1048783, 
  "CreateEvent": 55
 }, 
 {
  "lat": 55.0282215, 
  "WatchEvent": 1, 
  "lng": 82.9234476, 
  "name": "RUSSIAN FEDERATION, NOVOSIBIRSK"
 }, 
 {
  "lat": null, 
  "lng": null, 
  "name": "CH-8753 MOLLIS, SWITZERLAND", 
  "PushEvent": 23
 }, 
 {
  "lat": -26.9195572, 
  "lng": -49.0665785, 
  "CreateEvent": 4, 
  "name": "BLUMENAU/SC - BRAZIL", 
  "PushEvent": 4
 }, 
 {
  "name": "MOROCCO", 
  "PushEvent": 3, 
  "lat": 31.2005672, 
  "WatchEvent": 1, 
  "lng": -7.3205368, 
  "CreateEvent": 1
 }, 
 {
  "lat": 32.0609158, 
  "WatchEvent": 1, 
  "lng": 118.7916065, 
  "name": "NANJING,JIANGSU,CHINA", 
  "PushEvent": 24
 }, 
 {
  "lat": 35.53147965, 
  "WatchEvent": 1, 
  "lng": 139.696856706664, 
  "name": "KAWASAKI, KANAGAWA"
 }, 
 {
  "DownloadEvent": 3, 
  "ForkEvent": 1, 
  "PushEvent": 1, 
  "lat": 33.0369867, 
  "lng": -117.2919818, 
  "name": "ENCINITAS, CA"
 }, 
 {
  "lat": 31.2402487, 
  "WatchEvent": 1, 
  "lng": 121.4928591, 
  "name": "PUDONG, SHANGHAI, CN"
 }, 
 {
  "lat": 42.3582412, 
  "lng": -71.0956714657955, 
  "name": "MASSACHUSETTS MA", 
  "PushEvent": 7
 }, 
 {
  "lat": 52.4146545, 
  "lng": -4.0778713, 
  "CreateEvent": 6, 
  "name": "ABERYSTWYTH", 
  "PushEvent": 14
 }, 
 {
  "lat": 40.7305991, 
  "IssueCommentEvent": 1, 
  "lng": -73.9865812, 
  "name": "NEW YORK, NY, USA", 
  "ForkEvent": 1
 }, 
 {
  "lat": null, 
  "lng": null, 
  "IssuesEvent": 2, 
  "name": "ON MY SEAT", 
  "IssueCommentEvent": 1
 }, 
 {
  "name": "PROVO, UT, USA", 
  "PullRequestEvent": 2, 
  "IssueCommentEvent": 2, 
  "PushEvent": 15, 
  "CommitCommentEvent": 8, 
  "ForkEvent": 1, 
  "lat": 40.2338438, 
  "lng": -111.6585337, 
  "CreateEvent": 4
 }, 
 {
  "lat": null, 
  "lng": null, 
  "name": "SOON TO BE SF", 
  "PushEvent": 2
 }, 
 {
  "lat": 40.4167022, 
  "WatchEvent": 1, 
  "lng": -86.8752869, 
  "name": "LAFAYETTE, INDIANA"
 }, 
 {
  "lat": 36.0895093, 
  "lng": 120.3497193, 
  "name": "QINGDAO", 
  "CreateEvent": 1
 }, 
 {
  "name": "SEOUL, SOUTH KOREA", 
  "PullRequestEvent": 9, 
  "PushEvent": 114, 
  "IssueCommentEvent": 4, 
  "ForkEvent": 2, 
  "lat": 37.5710824, 
  "WatchEvent": 7, 
  "lng": 126.9953036, 
  "IssuesEvent": 18, 
  "CreateEvent": 12
 }, 
 {
  "name": "WELLINGTON, NZ", 
  "PushEvent": 1, 
  "lat": -41.2887639, 
  "WatchEvent": 4, 
  "lng": 174.7772239, 
  "CreateEvent": 1
 }, 
 {
  "lat": -3.7304512, 
  "lng": -38.5217989, 
  "CreateEvent": 1, 
  "name": "FORTALEZA, CE", 
  "PushEvent": 7
 }, 
 {
  "lat": -25.8363889, 
  "WatchEvent": 1, 
  "lng": 28.1802778, 
  "name": "CENTURION, SOUTH AFRICA"
 }, 
 {
  "MemberEvent": 4, 
  "name": "OURO PRETO", 
  "PushEvent": 53, 
  "lat": -20.3865711, 
  "lng": -43.5070011, 
  "CreateEvent": 2
 }, 
 {
  "lat": 51.9228958, 
  "WatchEvent": 2, 
  "lng": 4.4631727, 
  "name": "ROTTERDAM,NL"
 }, 
 {
  "lat": 34.2620635, 
  "WatchEvent": 1, 
  "lng": 108.9423748, 
  "name": "XI'AN SHAANXI CHINA", 
  "ForkEvent": 1
 }, 
 {
  "lat": 52.2602356, 
  "WatchEvent": 1, 
  "lng": 6.1555172, 
  "name": "DEVENTER"
 }, 
 {
  "lat": 42.4414273, 
  "WatchEvent": 1, 
  "lng": -84.9241542, 
  "name": "OLIVET, MI"
 }, 
 {
  "lat": 39.5162234, 
  "WatchEvent": 1, 
  "lng": -76.9382069, 
  "name": "MARYLAND, UNITED STATES"
 }, 
 {
  "name": "COLOMBO, SRI LANKA", 
  "IssueCommentEvent": 7, 
  "PushEvent": 777, 
  "CommitCommentEvent": 2, 
  "ForkEvent": 1, 
  "lat": 6.934287, 
  "WatchEvent": 7, 
  "lng": 79.8532704, 
  "GollumEvent": 3
 }, 
 {
  "name": "NEWCASTLE UPON TYNE, UNITED KINGDOM", 
  "PullRequestEvent": 1, 
  "IssueCommentEvent": 1, 
  "PushEvent": 7, 
  "lat": 55.0192459, 
  "WatchEvent": 3, 
  "lng": -1.67412352423817, 
  "CreateEvent": 4
 }, 
 {
  "lat": 42.9949373, 
  "lng": -3.0100699, 
  "name": "ORDU\u00f1A, BIZKAIA", 
  "PushEvent": 2
 }, 
 {
  "lat": -26.0933018, 
  "WatchEvent": 2, 
  "lng": 28.0028818, 
  "name": "UK/SOUTH AFRICA"
 }, 
 {
  "PublicEvent": 1, 
  "DownloadEvent": 1, 
  "name": "BASEL", 
  "PullRequestEvent": 1, 
  "PushEvent": 9, 
  "lat": 47.5429886, 
  "WatchEvent": 2, 
  "lng": 7.5969912, 
  "GollumEvent": 1, 
  "CreateEvent": 2
 }, 
 {
  "lat": 40.7305991, 
  "WatchEvent": 1, 
  "lng": -73.9865812, 
  "name": "NEW YORK, NY USA"
 }, 
 {
  "lat": null, 
  "lng": null, 
  "name": "SENT PETERSBURG", 
  "PushEvent": 5
 }, 
 {
  "lat": 41.801101, 
  "WatchEvent": 2, 
  "lng": -86.5005242, 
  "name": "SOUTHEASTERN, UNITED STATES"
 }, 
 {
  "name": "\u041c\u043e\u0441\u043a\u0432\u0430", 
  "IssueCommentEvent": 1, 
  "PushEvent": 3, 
  "lat": 55.5805786, 
  "WatchEvent": 2, 
  "lng": 37.4062709, 
  "IssuesEvent": 2
 }, 
 {
  "name": "LONDON, U.K.", 
  "PullRequestEvent": 23, 
  "IssueCommentEvent": 26, 
  "PushEvent": 43, 
  "DeleteEvent": 1, 
  "lat": 51.5072759, 
  "WatchEvent": 2, 
  "lng": -0.1276597, 
  "IssuesEvent": 1, 
  "CreateEvent": 16
 }, 
 {
  "lat": 53.9527479, 
  "lng": -113.1124871, 
  "name": "REDWATER, ALBERTA, CANADA", 
  "PushEvent": 10
 }, 
 {
  "lat": 55.994043, 
  "WatchEvent": 1, 
  "lng": 37.17167505, 
  "name": "MOSCOW, ZELENOGRAD"
 }, 
 {
  "lat": 39.1670396, 
  "MemberEvent": 1, 
  "lng": -86.5342881, 
  "name": "BLOOMINGTON INDIANA", 
  "CreateEvent": 3
 }, 
 {
  "lat": null, 
  "lng": null, 
  "name": "JIANGXI FUZHOU | SHAANXI XI'AN", 
  "PushEvent": 3
 }, 
 {
  "ForkEvent": 2, 
  "CreateEvent": 1, 
  "IssueCommentEvent": 1, 
  "PushEvent": 42, 
  "name": "VANCOUVER, CANADA", 
  "CommitCommentEvent": 1, 
  "lat": 49.2499987, 
  "WatchEvent": 3, 
  "lng": -123.1333301, 
  "IssuesEvent": 2, 
  "DownloadEvent": 2
 }, 
 {
  "lat": 50.44852675, 
  "WatchEvent": 1, 
  "lng": 30.5272671213269, 
  "name": "UKRAINE/KYIV"
 }, 
 {
  "DownloadEvent": 7, 
  "ForkEvent": 1, 
  "PushEvent": 81, 
  "name": "NOIDA", 
  "CommitCommentEvent": 1, 
  "lat": 28.5766287, 
  "lng": 77.3297826, 
  "CreateEvent": 3
 }, 
 {
  "MemberEvent": 4, 
  "ForkEvent": 13, 
  "GollumEvent": 2, 
  "DeleteEvent": 6, 
  "IssueCommentEvent": 4, 
  "PushEvent": 372, 
  "name": "SINGAPORE", 
  "PullRequestEvent": 4, 
  "CommitCommentEvent": 4, 
  "lat": 1.2906296, 
  "WatchEvent": 39, 
  "lng": 103.8528342, 
  "IssuesEvent": 12, 
  "CreateEvent": 39
 }, 
 {
  "ForkEvent": 1, 
  "PushEvent": 10, 
  "name": "ABERDEEN, UK", 
  "lat": 57.1452452, 
  "lng": -2.0913745, 
  "CreateEvent": 1
 }, 
 {
  "lat": 39.2014405, 
  "WatchEvent": 1, 
  "lng": -85.9213796, 
  "name": "COLUMBUS, INDIANA"
 }, 
 {
  "lat": 37.5318804, 
  "WatchEvent": 1, 
  "lng": -122.2480219, 
  "name": "REDWOOD SHORES, CA", 
  "PushEvent": 2
 }, 
 {
  "ForkEvent": 1, 
  "PushEvent": 1, 
  "lat": 38.4153421, 
  "lng": 27.144474, 
  "CreateEvent": 4, 
  "name": "\u0130ZMIR"
 }, 
 {
  "ForkEvent": 1, 
  "PushEvent": 1, 
  "lat": -16.680882, 
  "lng": -49.2532691, 
  "CreateEvent": 4, 
  "name": "GOI\u00e2NIA, GOI\u00e1S, BRASIL"
 }, 
 {
  "lat": 42.8803356, 
  "WatchEvent": 1, 
  "lng": -8.5463795, 
  "name": "SANTIAGO DE COMPOSTELA", 
  "PushEvent": 3
 }, 
 {
  "MemberEvent": 1, 
  "name": "BILBAO", 
  "PullRequestEvent": 5, 
  "IssueCommentEvent": 14, 
  "PushEvent": 22, 
  "CommitCommentEvent": 1, 
  "lat": 43.2629642, 
  "lng": -2.9349478, 
  "IssuesEvent": 15, 
  "CreateEvent": 2
 }, 
 {
  "name": "ITAJA\u00ed-SC (BRAZIL)", 
  "DeleteEvent": 1, 
  "PushEvent": 15, 
  "lat": -26.9113112, 
  "lng": -48.6708521, 
  "CreateEvent": 1
 }, 
 {
  "ForkEvent": 1, 
  "PullRequestEvent": 1, 
  "PushEvent": 38, 
  "name": "HILO, HAWAII", 
  "lat": 19.685067, 
  "WatchEvent": 3, 
  "lng": -155.100536029642, 
  "CreateEvent": 15
 }, 
 {
  "ForkEvent": 1, 
  "PullRequestEvent": 1, 
  "PushEvent": 1, 
  "lat": 43.2233214, 
  "lng": -90.2915132, 
  "name": "GOTHAM"
 }, 
 {
  "lat": 39.2673284, 
  "PublicEvent": 1, 
  "name": "ELLICOTT CITY, MD", 
  "lng": -76.7983067, 
  "PushEvent": 4
 }, 
 {
  "PushEvent": 14, 
  "ForkEvent": 3, 
  "PullRequestEvent": 3, 
  "IssueCommentEvent": 6, 
  "name": "BANGALORE,INDIA", 
  "lat": 12.9793998, 
  "WatchEvent": 2, 
  "lng": 77.5903608, 
  "CreateEvent": 4
 }, 
 {
  "lat": -19.9227318, 
  "lng": -43.9450948, 
  "GollumEvent": 1, 
  "name": "BELO HORIZONTE - BRASIL", 
  "PushEvent": 2
 }, 
 {
  "ForkEvent": 2, 
  "IssueCommentEvent": 7, 
  "PushEvent": 24, 
  "lat": null, 
  "lng": null, 
  "IssuesEvent": 3, 
  "name": "MILKY WAY GALAXY"
 }, 
 {
  "name": "PULA, CROATIA", 
  "IssueCommentEvent": 4, 
  "PushEvent": 7, 
  "lat": 44.868823, 
  "lng": 13.8461349, 
  "IssuesEvent": 9, 
  "CreateEvent": 1
 }, 
 {
  "IssuesEvent": 2, 
  "ForkEvent": 3, 
  "DeleteEvent": 3, 
  "PushEvent": 29, 
  "IssueCommentEvent": 2, 
  "PullRequestEvent": 2, 
  "CommitCommentEvent": 3, 
  "lat": 37.8043808, 
  "WatchEvent": 6, 
  "lng": -122.2708166, 
  "CreateEvent": 38, 
  "name": "OAKLAND, CA"
 }, 
 {
  "lat": null, 
  "lng": null, 
  "name": "TOLUCA, EDO. M\u00e9XICO", 
  "PushEvent": 1
 }, 
 {
  "lat": -7.221958, 
  "WatchEvent": 2, 
  "lng": -35.873144, 
  "name": "BRAZIL, CAMPINA GRANDE - PB"
 }, 
 {
  "lat": 60.1593692, 
  "lng": 24.8753044, 
  "name": "LAUTTASAARI, HELSINKI", 
  "ForkEvent": 1
 }, 
 {
  "name": "DALLAS/FORT WORTH TX", 
  "PullRequestEvent": 3, 
  "IssueCommentEvent": 6, 
  "PushEvent": 19, 
  "DeleteEvent": 1, 
  "ForkEvent": 1, 
  "lat": 32.7596525, 
  "lng": -97.029608, 
  "IssuesEvent": 4, 
  "CreateEvent": 9
 }, 
 {
  "name": "SHANG HAI", 
  "PullRequestEvent": 7, 
  "IssueCommentEvent": 1, 
  "PushEvent": 19, 
  "lat": 31.2253441, 
  "lng": 121.4888922
 }, 
 {
  "lat": 39.3517595, 
  "WatchEvent": 1, 
  "lng": -120.175331084297, 
  "name": "TRUCKEE, CA"
 }, 
 {
  "DownloadEvent": 1, 
  "name": "PILSEN, CZECH REPUBLIC", 
  "GollumEvent": 1, 
  "DeleteEvent": 2, 
  "IssueCommentEvent": 7, 
  "PushEvent": 25, 
  "lat": 49.7477415, 
  "lng": 13.3775249, 
  "IssuesEvent": 11, 
  "CreateEvent": 8
 }, 
 {
  "name": "UDDEL", 
  "IssueCommentEvent": 6, 
  "PushEvent": 14, 
  "lat": 52.2594605, 
  "lng": 5.783866, 
  "IssuesEvent": 6, 
  "CreateEvent": 6
 }, 
 {
  "lat": 52.1474052, 
  "WatchEvent": 1, 
  "lng": 7.338041, 
  "name": "STEINFURT, GERMANY"
 }, 
 {
  "lat": 34.7591877, 
  "WatchEvent": 1, 
  "lng": 113.6524076, 
  "name": "ZHENGZHOU,HENAN"
 }, 
 {
  "ForkEvent": 1, 
  "PushEvent": 8, 
  "lat": 30.6765038, 
  "WatchEvent": 4, 
  "lng": 104.0613634, 
  "name": "\u6210\u90fd"
 }, 
 {
  "lat": null, 
  "WatchEvent": 10, 
  "lng": null, 
  "name": "RIGHT WHERE YOU ARE SITTING NOW.", 
  "PushEvent": 57
 }, 
 {
  "lat": 37.5352544, 
  "WatchEvent": 1, 
  "lng": 121.389225, 
  "name": "YANTAI, CHINA"
 }, 
 {
  "lat": -23.5503279, 
  "MemberEvent": 1, 
  "lng": -46.6339647, 
  "name": "S\u00e3O PAULO, SP, BRASIL", 
  "PushEvent": 81
 }, 
 {
  "lat": 38.0775542, 
  "WatchEvent": 1, 
  "lng": 46.2868632, 
  "name": "TABRIZ"
 }, 
 {
  "lat": null, 
  "lng": null, 
  "name": "LANCENIGO DI VILLORBA (TV) - ITALY", 
  "ForkEvent": 1
 }, 
 {
  "ForkEvent": 3, 
  "GollumEvent": 1, 
  "PullRequestEvent": 2, 
  "IssueCommentEvent": 2, 
  "PushEvent": 29, 
  "name": "SAINT LOUIS, MO", 
  "DeleteEvent": 1, 
  "lat": 38.6272733, 
  "WatchEvent": 2, 
  "lng": -90.1978889, 
  "IssuesEvent": 1, 
  "CreateEvent": 6
 }, 
 {
  "name": "NEW ZEALAND", 
  "GollumEvent": 3, 
  "PullRequestEvent": 3, 
  "IssueCommentEvent": 25, 
  "PushEvent": 370, 
  "DeleteEvent": 2, 
  "CommitCommentEvent": 8, 
  "ForkEvent": 6, 
  "lat": -41.3116998, 
  "WatchEvent": 19, 
  "lng": 174.9746507, 
  "IssuesEvent": 21, 
  "CreateEvent": 35
 }, 
 {
  "lat": 50.94044595, 
  "lng": 0.369988104774366, 
  "IssuesEvent": 3, 
  "name": "EAST SUSSEX, UK", 
  "IssueCommentEvent": 1
 }, 
 {
  "lat": 43.2389912, 
  "lng": 76.9453467, 
  "IssuesEvent": 1, 
  "name": "ALMATY, KAZAKHSTAN"
 }, 
 {
  "name": "GUAYAQUIL, ECUADOR", 
  "PullRequestEvent": 2, 
  "PushEvent": 21, 
  "IssueCommentEvent": 1, 
  "DeleteEvent": 1, 
  "CommitCommentEvent": 2, 
  "lat": -2.2010072, 
  "WatchEvent": 1, 
  "lng": -79.8818938, 
  "CreateEvent": 1
 }, 
 {
  "MemberEvent": 1, 
  "ForkEvent": 2, 
  "PullRequestEvent": 1, 
  "IssueCommentEvent": 6, 
  "PushEvent": 15, 
  "lat": 41.2587317, 
  "WatchEvent": 3, 
  "lng": -95.9378732, 
  "IssuesEvent": 2, 
  "name": "OMAHA, NEBRASKA"
 }, 
 {
  "lat": 43.6529206, 
  "lng": -79.3849008, 
  "CreateEvent": 1, 
  "name": "TORONTO, ON CANADA", 
  "PushEvent": 1
 }, 
 {
  "name": "CHRISTCHURCH, NEW ZEALAND", 
  "PushEvent": 8, 
  "CommitCommentEvent": 6, 
  "lat": -43.530955, 
  "WatchEvent": 4, 
  "lng": 172.6366455
 }, 
 {
  "name": "NATAL, RN", 
  "GollumEvent": 1, 
  "PushEvent": 2, 
  "IssueCommentEvent": 2, 
  "lat": -5.805398, 
  "lng": -35.2080905, 
  "IssuesEvent": 4, 
  "CreateEvent": 1
 }, 
 {
  "MemberEvent": 2, 
  "name": "DRESDEN", 
  "PushEvent": 307, 
  "lat": 51.0763286, 
  "lng": 13.7384089767404, 
  "GollumEvent": 30, 
  "CreateEvent": 10
 }, 
 {
  "name": "SINGAPROE", 
  "PullRequestEvent": 1, 
  "IssueCommentEvent": 1, 
  "lat": null, 
  "lng": null, 
  "ForkEvent": 1
 }, 
 {
  "lat": 45.4666211, 
  "WatchEvent": 2, 
  "lng": 9.1906166, 
  "name": "MILAN - ITALY"
 }, 
 {
  "lat": 33.4709714, 
  "lng": -81.9748429, 
  "CreateEvent": 2, 
  "name": "AUGUSTA, GA (USA)", 
  "PushEvent": 23
 }, 
 {
  "ForkEvent": 1, 
  "PullRequestEvent": 3, 
  "PushEvent": 19, 
  "name": "SIMI VALLEY", 
  "lat": 34.2657598, 
  "WatchEvent": 1, 
  "lng": -118.731346417536, 
  "CreateEvent": 1
 }, 
 {
  "lat": 42.5584264, 
  "WatchEvent": 1, 
  "lng": -71.268947, 
  "name": "BILLERICA, MA"
 }, 
 {
  "lat": 41.1695269, 
  "lng": -75.877419, 
  "name": "MOUNTAIN TOP, PA", 
  "ForkEvent": 1
 }, 
 {
  "lat": 39.4225192, 
  "WatchEvent": 1, 
  "lng": -111.7143584, 
  "name": "UTAH, USA", 
  "ForkEvent": 1
 }, 
 {
  "lat": 45.5224507, 
  "WatchEvent": 1, 
  "lng": -73.5912827, 
  "name": "MONTREAL - CANADA"
 }, 
 {
  "MemberEvent": 2, 
  "name": "CHICAGO, IL, 60616", 
  "IssueCommentEvent": 2, 
  "PushEvent": 24, 
  "lat": 41.8756208, 
  "lng": -87.6243706, 
  "IssuesEvent": 7, 
  "CreateEvent": 1
 }, 
 {
  "lat": 49.1196964, 
  "WatchEvent": 1, 
  "lng": 6.1763552, 
  "name": "METZ, FRANCE"
 }, 
 {
  "MemberEvent": 2, 
  "PullRequestReviewCommentEvent": 12, 
  "name": "BUENOS AIRES, ARGENTINA", 
  "CreateEvent": 25, 
  "PullRequestEvent": 55, 
  "PushEvent": 254, 
  "IssueCommentEvent": 16, 
  "ForkEvent": 7, 
  "lat": -34.612869, 
  "WatchEvent": 28, 
  "CommitCommentEvent": 4, 
  "IssuesEvent": 30, 
  "lng": -58.4459789, 
  "GollumEvent": 68
 }, 
 {
  "lat": 22.5462321, 
  "WatchEvent": 1, 
  "lng": 114.0570068, 
  "name": "SHENZHEN CITY.GUANGDONG PROVINCE.CHINA"
 }, 
 {
  "lat": 35.1490215, 
  "WatchEvent": 3, 
  "lng": -90.0516285, 
  "name": "MEMPHIS, TN, USA"
 }, 
 {
  "lat": 10.3090298, 
  "lng": 123.8930839, 
  "CreateEvent": 5, 
  "name": "CEBU CITY, PHILIPPINES", 
  "PushEvent": 6
 }, 
 {
  "lat": 39.779217, 
  "lng": -105.182551222303, 
  "name": "GOLDEN, COLORADO", 
  "PushEvent": 7
 }, 
 {
  "lat": 50.5521486, 
  "WatchEvent": 4, 
  "lng": 9.676511, 
  "name": "FULDA, GERMANY"
 }, 
 {
  "lat": 43.6044622, 
  "lng": 1.4442469, 
  "name": "TOULOUSE (FRANCE)", 
  "PushEvent": 3
 }, 
 {
  "MemberEvent": 7, 
  "PushEvent": 691, 
  "DownloadEvent": 88, 
  "GollumEvent": 69, 
  "PullRequestEvent": 32, 
  "IssueCommentEvent": 259, 
  "name": "JAPAN", 
  "DeleteEvent": 6, 
  "ForkEvent": 28, 
  "ForkApplyEvent": 1, 
  "lat": 36.5748441, 
  "WatchEvent": 113, 
  "CommitCommentEvent": 21, 
  "IssuesEvent": 79, 
  "PullRequestReviewCommentEvent": 1, 
  "lng": 139.2394179, 
  "CreateEvent": 96
 }, 
 {
  "lat": 32.2217429, 
  "WatchEvent": 1, 
  "lng": -110.926479, 
  "name": "TUCSON, ARIZONA", 
  "GollumEvent": 1
 }, 
 {
  "name": "SAN RAMON, CA", 
  "PullRequestEvent": 3, 
  "PushEvent": 5, 
  "lat": 37.758562, 
  "lng": -121.960126393056, 
  "CreateEvent": 1
 }, 
 {
  "lat": 26.1403635, 
  "lng": -80.2133808, 
  "name": "LAUDERHILL, FL", 
  "PushEvent": 4
 }, 
 {
  "MemberEvent": 2, 
  "name": "EVERYWHERE.", 
  "PushEvent": 54, 
  "CommitCommentEvent": 3, 
  "lat": 51.7681681, 
  "WatchEvent": 1, 
  "lng": -0.236918512924585
 }, 
 {
  "PushEvent": 99, 
  "ForkEvent": 7, 
  "PullRequestEvent": 3, 
  "IssueCommentEvent": 5, 
  "name": "ATHENS, GREECE", 
  "lat": 37.9841493, 
  "WatchEvent": 18, 
  "lng": 23.7279843, 
  "IssuesEvent": 2, 
  "CreateEvent": 5
 }, 
 {
  "ForkEvent": 4, 
  "PullRequestEvent": 5, 
  "PushEvent": 8, 
  "CommitCommentEvent": 2, 
  "lat": -23.5503279, 
  "WatchEvent": 4, 
  "lng": -46.6339647, 
  "CreateEvent": 2, 
  "name": "S\u00e3O PAULO - SP - BRAZIL"
 }, 
 {
  "lat": 54.7023545, 
  "lng": -3.2765753, 
  "CreateEvent": 1, 
  "name": "U.K.", 
  "PushEvent": 19
 }, 
 {
  "MemberEvent": 1, 
  "name": "BLACKSBURG", 
  "PullRequestEvent": 10, 
  "IssueCommentEvent": 10, 
  "PushEvent": 32, 
  "CommitCommentEvent": 19, 
  "ForkEvent": 2, 
  "lat": 37.2295733, 
  "lng": -80.4139393, 
  "GollumEvent": 1, 
  "CreateEvent": 6
 }, 
 {
  "lat": 41.7370229, 
  "lng": -99.5873816, 
  "name": "NORTHEAST", 
  "PushEvent": 1
 }, 
 {
  "lat": 41.5664297, 
  "lng": -93.7573893, 
  "CreateEvent": 1, 
  "name": "WEST DES MOINES, IA, USA", 
  "PushEvent": 3
 }, 
 {
  "lat": -35.2820709, 
  "lng": 149.1286673, 
  "name": "CANBERRA", 
  "PushEvent": 17
 }, 
 {
  "lat": 50.011974, 
  "WatchEvent": 1, 
  "lng": 8.7123912, 
  "name": "DREIEICH, GERMANY"
 }, 
 {
  "name": "FRANCE, CERGY", 
  "CreateEvent": 1, 
  "PullRequestEvent": 2, 
  "IssueCommentEvent": 5, 
  "PushEvent": 11, 
  "DeleteEvent": 1, 
  "CommitCommentEvent": 1, 
  "lat": 48.9996702, 
  "WatchEvent": 3, 
  "lng": 2.1029449, 
  "IssuesEvent": 9, 
  "ForkEvent": 2
 }, 
 {
  "lat": -23.501667, 
  "lng": -47.458056, 
  "PushEvent": 1, 
  "name": "SOROCABA / SP", 
  "CreateEvent": 1
 }, 
 {
  "lat": 37.442156, 
  "lng": -122.1634472, 
  "CreateEvent": 2, 
  "name": "PALO ALTO, CA.", 
  "PushEvent": 32
 }, 
 {
  "lat": -33.8548157, 
  "lng": 151.2164539, 
  "name": "SYDNEY/AUSTRALIA", 
  "PushEvent": 15
 }, 
 {
  "lat": null, 
  "lng": null, 
  "name": "KARLSRUHE/BUCHAREST", 
  "PushEvent": 1
 }, 
 {
  "lat": 44.6484246, 
  "lng": -63.5749724, 
  "CreateEvent": 2, 
  "name": "HALIFAX, NS", 
  "PushEvent": 14
 }, 
 {
  "ForkEvent": 1, 
  "PushEvent": 1, 
  "lat": 41.6786754, 
  "lng": -83.5127283, 
  "CreateEvent": 1, 
  "name": "TOLEDO, OHIO"
 }, 
 {
  "lat": 39.2846027, 
  "lng": -76.6204720586531, 
  "name": "BALTIMORE, US", 
  "PushEvent": 2
 }, 
 {
  "lat": 53.3225083, 
  "lng": 6.001123, 
  "CommitCommentEvent": 1, 
  "name": "DOKKUM, THE NETHERLANDS"
 }, 
 {
  "MemberEvent": 3, 
  "name": "PORTO ALEGRE - RS, BRASIL", 
  "IssueCommentEvent": 1, 
  "PushEvent": 2, 
  "lat": -30.0330556, 
  "WatchEvent": 1, 
  "lng": -51.23, 
  "IssuesEvent": 1
 }, 
 {
  "lat": 42.8943882, 
  "lng": 71.3920902, 
  "name": "TARAZ", 
  "PushEvent": 51
 }, 
 {
  "name": "JENA, GERMANY", 
  "PullRequestEvent": 1, 
  "IssueCommentEvent": 1, 
  "PushEvent": 2, 
  "lat": 50.9224875, 
  "WatchEvent": 4, 
  "lng": 11.5887768640545
 }, 
 {
  "name": "TEHRAN", 
  "IssueCommentEvent": 1, 
  "PushEvent": 15, 
  "lat": 35.6884243, 
  "WatchEvent": 6, 
  "lng": 51.4179604, 
  "IssuesEvent": 2
 }, 
 {
  "name": "VANCOUVER, BC, CANADA", 
  "CreateEvent": 6, 
  "PushEvent": 6, 
  "IssueCommentEvent": 2, 
  "ForkEvent": 1, 
  "lat": 49.2499987, 
  "WatchEvent": 4, 
  "lng": -123.1333301, 
  "IssuesEvent": 8, 
  "GollumEvent": 4
 }, 
 {
  "lat": 53.30847725, 
  "WatchEvent": 3, 
  "lng": -1.53809097702499, 
  "name": "IN YOUR HEAD"
 }, 
 {
  "lat": 32.7801052, 
  "lng": -96.8000082, 
  "CreateEvent": 1, 
  "name": "DALLAS, USA", 
  "PushEvent": 2
 }, 
 {
  "PublicEvent": 1, 
  "name": "AMES, IA", 
  "PullRequestEvent": 3, 
  "PushEvent": 42, 
  "DeleteEvent": 1, 
  "CommitCommentEvent": 3, 
  "ForkEvent": 1, 
  "lat": 42.0346917, 
  "WatchEvent": 4, 
  "lng": -93.6201507, 
  "IssuesEvent": 1, 
  "CreateEvent": 1
 }, 
 {
  "MemberEvent": 1, 
  "DownloadEvent": 4, 
  "ForkEvent": 11, 
  "GollumEvent": 5, 
  "DeleteEvent": 2, 
  "IssueCommentEvent": 3, 
  "PushEvent": 177, 
  "name": "SEOUL", 
  "PullRequestEvent": 1, 
  "CommitCommentEvent": 3, 
  "lat": 37.5710824, 
  "WatchEvent": 13, 
  "lng": 126.9953036, 
  "IssuesEvent": 20, 
  "CreateEvent": 27
 }, 
 {
  "lat": 35.0185804, 
  "WatchEvent": 1, 
  "lng": 135.763835, 
  "name": "KYOTO"
 }, 
 {
  "lat": null, 
  "lng": null, 
  "name": "SILICON VALLEY, CALIFORNIA, USA", 
  "PushEvent": 4
 }, 
 {
  "lat": 40.1105875, 
  "WatchEvent": 2, 
  "lng": -88.2072697, 
  "name": "URBANA"
 }, 
 {
  "name": "ALASKA", 
  "PullRequestEvent": 1, 
  "PushEvent": 1, 
  "lat": 64.4459613, 
  "lng": -149.680909, 
  "ForkEvent": 1
 }, 
 {
  "lat": null, 
  "WatchEvent": 1, 
  "lng": null, 
  "name": "INDIANAPOLIS / NOBLESVILLE, INDIANA"
 }, 
 {
  "lat": 42.8343422, 
  "lng": 13.927816, 
  "name": "ALBA ADRIATICA (TE)", 
  "ForkEvent": 1
 }, 
 {
  "lat": 30.2665643, 
  "WatchEvent": 11, 
  "lng": 120.149335, 
  "name": "HANGZHOU.ZHEJIANG.CHINA", 
  "ForkEvent": 1
 }, 
 {
  "lat": 50.354883, 
  "lng": 3.1299151, 
  "name": "DECHY, FRANCE", 
  "GollumEvent": 1
 }, 
 {
  "lat": 43.6211955, 
  "lng": -84.6824346, 
  "name": "MICHIGAN, US", 
  "PushEvent": 17
 }, 
 {
  "lat": 45.6632061, 
  "WatchEvent": 1, 
  "lng": 16.5204571, 
  "name": "KRIZ/ZAGREB"
 }, 
 {
  "lat": 52.0603374, 
  "WatchEvent": 1, 
  "lng": 4.290047, 
  "name": "THE NETHERLANDS, THE HAGUE"
 }, 
 {
  "lat": 42.3788774, 
  "WatchEvent": 1, 
  "lng": -72.032366, 
  "name": "MASS"
 }, 
 {
  "MemberEvent": 1, 
  "PublicEvent": 1, 
  "DownloadEvent": 10, 
  "GollumEvent": 1, 
  "CreateEvent": 8, 
  "PullRequestEvent": 10, 
  "IssueCommentEvent": 11, 
  "PushEvent": 201, 
  "DeleteEvent": 1, 
  "ForkEvent": 1, 
  "lat": 33.7490987, 
  "lng": -84.3901849, 
  "IssuesEvent": 18, 
  "name": "ATLANTA"
 }, 
 {
  "IssuesEvent": 15, 
  "PullRequestReviewCommentEvent": 4, 
  "name": "SEATTLE", 
  "PullRequestEvent": 8, 
  "IssueCommentEvent": 21, 
  "PushEvent": 516, 
  "DeleteEvent": 6, 
  "CommitCommentEvent": 13, 
  "ForkEvent": 8, 
  "lat": 47.6038321, 
  "WatchEvent": 36, 
  "lng": -122.3300624, 
  "GollumEvent": 15, 
  "CreateEvent": 25
 }, 
 {
  "DownloadEvent": 1, 
  "GollumEvent": 5, 
  "CreateEvent": 1, 
  "PushEvent": 10, 
  "IssueCommentEvent": 1, 
  "ForkEvent": 1, 
  "lat": 30.2665643, 
  "WatchEvent": 6, 
  "lng": 120.149335, 
  "IssuesEvent": 7, 
  "name": "HANGZHOU ZHEJIANG CHINA"
 }, 
 {
  "lat": null, 
  "lng": null, 
  "name": "\u5c71\u6942\u6811\u6811\u679d", 
  "ForkEvent": 2
 }, 
 {
  "name": "LIVERPOOL, UNITED KINGDOM", 
  "PushEvent": 6, 
  "lat": 53.4054719, 
  "WatchEvent": 3, 
  "lng": -2.9805393, 
  "CreateEvent": 1
 }, 
 {
  "name": "BALTIMORE, MARYLAND", 
  "IssueCommentEvent": 1, 
  "PushEvent": 1, 
  "lat": 39.2846027, 
  "lng": -76.6204720586531, 
  "IssuesEvent": 1, 
  "GollumEvent": 17
 }, 
 {
  "lat": 57.1369473, 
  "lng": 65.5819746, 
  "name": "TYUMEN / RUSSIA", 
  "CreateEvent": 1
 }, 
 {
  "lat": 52.4009818, 
  "WatchEvent": 1, 
  "lng": 13.0622213, 
  "name": "POTSDAM - GERMANY"
 }, 
 {
  "lat": 25.0872844, 
  "WatchEvent": 4, 
  "lng": 121.563171189599, 
  "name": "TAIPEI CITY, TAIWAN", 
  "ForkEvent": 1
 }, 
 {
  "lat": 46.8770537, 
  "WatchEvent": 1, 
  "lng": -96.7897661, 
  "name": "FARGO, NORTH DAKOTA, USA"
 }, 
 {
  "lat": 50.9206638, 
  "WatchEvent": 2, 
  "lng": 3.4485632, 
  "name": "ZULTE"
 }, 
 {
  "name": "NY/NJ", 
  "PullRequestEvent": 1, 
  "PushEvent": 4, 
  "CommitCommentEvent": 1, 
  "lat": 40.71436105, 
  "lng": -74.0108548105046
 }, 
 {
  "lat": 36.4667412, 
  "WatchEvent": 1, 
  "lng": -5.0267062, 
  "name": "GRANADA - MADRID", 
  "ForkEvent": 1
 }, 
 {
  "name": "KINGSPORT, TN", 
  "PushEvent": 1, 
  "lat": 36.5484341, 
  "WatchEvent": 2, 
  "lng": -82.5618186, 
  "ForkEvent": 1
 }, 
 {
  "name": "TACOMA, WA", 
  "PushEvent": 2, 
  "lat": 47.2495798, 
  "WatchEvent": 1, 
  "lng": -122.4398746, 
  "GollumEvent": 2
 }, 
 {
  "name": "CHERKASSY", 
  "PushEvent": 14, 
  "lat": 49.4456517, 
  "WatchEvent": 1, 
  "lng": 32.062865, 
  "GollumEvent": 1, 
  "CreateEvent": 3
 }, 
 {
  "lat": 54.7023545, 
  "WatchEvent": 2, 
  "lng": -3.2765753, 
  "name": "THE UNITED KINGDOM"
 }, 
 {
  "lat": 32.3469435, 
  "lng": -90.3390894375189, 
  "name": "CLINTON, MS", 
  "PushEvent": 2
 }, 
 {
  "name": "NEW YORK, NEW YORK", 
  "PushEvent": 6, 
  "lat": 40.7305991, 
  "WatchEvent": 4, 
  "lng": -73.9865812, 
  "CreateEvent": 2
 }, 
 {
  "lat": 48.216118, 
  "WatchEvent": 1, 
  "lng": 16.3663222, 
  "name": "EAST COAST", 
  "GollumEvent": 1
 }, 
 {
  "name": "PORTLAND, ME", 
  "IssueCommentEvent": 1, 
  "PushEvent": 88, 
  "ForkEvent": 1, 
  "lat": 43.6610277, 
  "WatchEvent": 1, 
  "lng": -70.2548596, 
  "IssuesEvent": 1, 
  "CreateEvent": 5
 }, 
 {
  "name": "BROOKLYN, NEW YORK, USA", 
  "PushEvent": 1, 
  "lat": 40.6501038, 
  "WatchEvent": 1, 
  "lng": -73.9495823, 
  "CreateEvent": 1
 }, 
 {
  "lat": 40.6501038, 
  "lng": -73.9495823, 
  "IssuesEvent": 1, 
  "name": "BROOKLYN NY"
 }, 
 {
  "lat": 48.1372719, 
  "lng": 11.5754815, 
  "name": "MUNICH, DE", 
  "IssueCommentEvent": 2
 }, 
 {
  "name": "NORTHERN COLORADO", 
  "DeleteEvent": 1, 
  "PushEvent": 13, 
  "lat": 40.513475, 
  "WatchEvent": 5, 
  "lng": -105.003843, 
  "CreateEvent": 2
 }, 
 {
  "lat": null, 
  "WatchEvent": 1, 
  "lng": null, 
  "name": "SE MICHIGAN", 
  "ForkEvent": 1
 }, 
 {
  "IssuesEvent": 2, 
  "name": "PHOENIX", 
  "PullRequestEvent": 1, 
  "IssueCommentEvent": 3, 
  "PushEvent": 22, 
  "CommitCommentEvent": 1, 
  "lat": 33.361168, 
  "WatchEvent": 3, 
  "lng": -112.121302167105, 
  "GollumEvent": 43, 
  "CreateEvent": 3
 }, 
 {
  "lat": 31.9293683, 
  "lng": 34.7993793, 
  "name": "NESS ZIONA, ISRAEL", 
  "CreateEvent": 2
 }, 
 {
  "ForkEvent": 5, 
  "CreateEvent": 1, 
  "IssueCommentEvent": 2, 
  "PushEvent": 14, 
  "lat": null, 
  "WatchEvent": 6, 
  "lng": null, 
  "IssuesEvent": 2, 
  "name": "KOREA, REPUBLIC OF"
 }, 
 {
  "lat": 58.5909128, 
  "lng": 16.190348, 
  "name": "NORRK\u00f6PING, SWEDEN", 
  "PushEvent": 7
 }, 
 {
  "lat": -6.4045326, 
  "lng": 106.8172067, 
  "CreateEvent": 3, 
  "name": "DEPOK, INDONESIA", 
  "PushEvent": 20
 }, 
 {
  "MemberEvent": 1, 
  "DownloadEvent": 1, 
  "ForkEvent": 4, 
  "PullRequestEvent": 1, 
  "IssueCommentEvent": 2, 
  "PushEvent": 13, 
  "name": "LONDON, ENGLAND", 
  "lat": 51.5072759, 
  "WatchEvent": 13, 
  "lng": -0.1276597, 
  "IssuesEvent": 3, 
  "CreateEvent": 3
 }, 
 {
  "lat": 53.1311169, 
  "lng": 29.2284285, 
  "name": "BOBRUISK", 
  "ForkEvent": 1
 }, 
 {
  "name": "NEW YORK, NY, US", 
  "PullRequestEvent": 2, 
  "PushEvent": 3, 
  "DeleteEvent": 1, 
  "lat": 40.7305991, 
  "lng": -73.9865812, 
  "CreateEvent": 2
 }, 
 {
  "lat": 47.3903853, 
  "lng": 0.6899713, 
  "CreateEvent": 1, 
  "name": "TOURS, FRANCE", 
  "PushEvent": 1
 }, 
 {
  "lat": -17.3375459, 
  "lng": -44.9355675, 
  "CreateEvent": 1, 
  "name": "MONTES CLAROS / PIRAPORA", 
  "PushEvent": 4
 }, 
 {
  "lat": 31.4887073, 
  "WatchEvent": 5, 
  "lng": 109.318140891572, 
  "name": "WUXI"
 }, 
 {
  "DownloadEvent": 49, 
  "PullRequestEvent": 6, 
  "IssueCommentEvent": 3, 
  "PushEvent": 69, 
  "name": "GAINESVILLE, FL", 
  "lat": 29.651907, 
  "WatchEvent": 1, 
  "lng": -82.3247976, 
  "IssuesEvent": 5, 
  "CreateEvent": 10
 }, 
 {
  "lat": 13.7203266, 
  "WatchEvent": 2, 
  "lng": 100.600820462287, 
  "name": "BANGKOK THAILAND"
 }, 
 {
  "lat": 37.6230195, 
  "WatchEvent": 1, 
  "lng": -122.428982086872, 
  "name": "SAN BRUNO, CA"
 }, 
 {
  "lat": 3.0899195, 
  "WatchEvent": 21, 
  "lng": 101.6460532, 
  "name": "PJ, SELANGOR, MALAYSIA"
 }, 
 {
  "name": "SAN ANTONIO", 
  "PullRequestEvent": 11, 
  "IssueCommentEvent": 2, 
  "PushEvent": 113, 
  "DeleteEvent": 4, 
  "ForkEvent": 1, 
  "lat": 29.4246002, 
  "lng": -98.4951405, 
  "CreateEvent": 20
 }, 
 {
  "name": "COLLEGE PARK, MD", 
  "PushEvent": 21, 
  "lat": 38.980666, 
  "WatchEvent": 1, 
  "lng": -76.9369189, 
  "GollumEvent": 1, 
  "CreateEvent": 1
 }, 
 {
  "lat": 35.6329497, 
  "WatchEvent": 1, 
  "lng": 139.6981324, 
  "name": "MEGURO TOKYO, JAPAN"
 }, 
 {
  "name": "LYON (FRANCE)", 
  "IssueCommentEvent": 1, 
  "lat": 45.7575958, 
  "WatchEvent": 1, 
  "lng": 4.8323239, 
  "IssuesEvent": 1
 }, 
 {
  "PublicEvent": 1, 
  "ForkEvent": 1, 
  "PushEvent": 4, 
  "name": "TARRAGONA", 
  "lat": 41.113686, 
  "WatchEvent": 2, 
  "lng": 1.2527386, 
  "CreateEvent": 3
 }, 
 {
  "lat": 34.6850749, 
  "WatchEvent": 1, 
  "lng": -82.8364111, 
  "name": "CLEMSON, SOUTH CAROLINA", 
  "PushEvent": 3
 }, 
 {
  "name": "COLOMBIA", 
  "PushEvent": 59, 
  "lat": 2.8930783, 
  "WatchEvent": 1, 
  "lng": -73.7845072, 
  "CreateEvent": 4
 }, 
 {
  "lat": 51.8551523, 
  "WatchEvent": 4, 
  "lng": 0.9995868, 
  "name": "ALRESFORD"
 }, 
 {
  "name": "ODENTON, MD", 
  "lat": 39.0837774, 
  "WatchEvent": 2, 
  "lng": -76.7000224, 
  "GollumEvent": 1, 
  "CreateEvent": 1
 }, 
 {
  "lat": null, 
  "lng": null, 
  "name": "TEH INTERNETS", 
  "PushEvent": 8
 }, 
 {
  "lat": 10.7827445, 
  "WatchEvent": 2, 
  "lng": 106.6948984, 
  "name": "HO CHI MINH CITY, VIETNAM", 
  "ForkEvent": 1
 }, 
 {
  "lat": -6.5963597, 
  "WatchEvent": 1, 
  "lng": 106.7972378, 
  "name": "BOGOR, INDONESIA"
 }, 
 {
  "name": "(LOST IN SPACE)", 
  "IssueCommentEvent": 1, 
  "lat": 37.3585649, 
  "WatchEvent": 2, 
  "lng": -122.2455325, 
  "IssuesEvent": 1
 }, 
 {
  "MemberEvent": 1, 
  "DownloadEvent": 5, 
  "PullRequestEvent": 1, 
  "PushEvent": 125, 
  "name": "RIO DE JANEIRO", 
  "ForkEvent": 3, 
  "lat": -22.2752762, 
  "WatchEvent": 11, 
  "lng": -42.419415, 
  "IssuesEvent": 5, 
  "CreateEvent": 10
 }, 
 {
  "lat": 42.4792618, 
  "lng": -71.1522766, 
  "name": "WOBURN MA", 
  "CreateEvent": 2
 }, 
 {
  "lat": 40.8687097, 
  "WatchEvent": 1, 
  "lng": -73.0014946, 
  "name": "CORAM, NY"
 }, 
 {
  "name": "L\u00fcBECK, GERMANY", 
  "PullRequestEvent": 1, 
  "PushEvent": 14, 
  "IssueCommentEvent": 26, 
  "DeleteEvent": 1, 
  "lat": 53.8664436, 
  "WatchEvent": 1, 
  "lng": 10.6847384, 
  "IssuesEvent": 45, 
  "CreateEvent": 3
 }, 
 {
  "lat": 51.1263706, 
  "lng": 16.9780831265633, 
  "CreateEvent": 4, 
  "name": "WROCLAW, POLAND", 
  "PushEvent": 5
 }, 
 {
  "lat": 48.7388603, 
  "lng": 9.3010797, 
  "PushEvent": 4, 
  "name": "ESSLINGEN AM NECKAR, GERMANY", 
  "GollumEvent": 34
 }, 
 {
  "lat": 35.8240584, 
  "lng": 10.6350155, 
  "GollumEvent": 1, 
  "name": "SOUSSE", 
  "ForkEvent": 1
 }, 
 {
  "name": "HUNGARY, BUDA\u00f6RS", 
  "PushEvent": 1, 
  "lat": 47.4653113, 
  "lng": 18.8927435284257, 
  "CreateEvent": 2, 
  "GollumEvent": 1
 }, 
 {
  "lat": 43.8997843, 
  "lng": -78.9401236, 
  "name": "WHITBY, ON", 
  "CreateEvent": 1
 }, 
 {
  "name": "LAKE MARY , FL", 
  "PullRequestEvent": 1, 
  "IssueCommentEvent": 1, 
  "lat": 28.756624, 
  "lng": -81.3388827610376, 
  "IssuesEvent": 1
 }, 
 {
  "name": "GOTHENBURG, SWEDEN", 
  "PullRequestEvent": 2, 
  "PushEvent": 191, 
  "IssueCommentEvent": 4, 
  "DeleteEvent": 1, 
  "CommitCommentEvent": 5, 
  "ForkEvent": 2, 
  "lat": 57.7072326, 
  "WatchEvent": 7, 
  "lng": 11.9670171, 
  "IssuesEvent": 13, 
  "CreateEvent": 17
 }, 
 {
  "lat": 47.9027336, 
  "lng": 1.9086066, 
  "CreateEvent": 1, 
  "name": "ORL\u00e9ANS, FRANCE", 
  "PushEvent": 17
 }, 
 {
  "lat": 11.7, 
  "WatchEvent": 1, 
  "lng": -0.35, 
  "name": "SAMPA"
 }, 
 {
  "lat": 34.008617, 
  "WatchEvent": 2, 
  "lng": -118.494754033795, 
  "name": "SANTA MONICA"
 }, 
 {
  "name": "BELARUS", 
  "PushEvent": 54, 
  "CommitCommentEvent": 18, 
  "ForkEvent": 1, 
  "lat": 53.4250438, 
  "WatchEvent": 7, 
  "lng": 27.6999547, 
  "GollumEvent": 5, 
  "CreateEvent": 6
 }, 
 {
  "IssuesEvent": 1, 
  "name": "DEFAULT CITY", 
  "DeleteEvent": 1, 
  "PushEvent": 14, 
  "lat": null, 
  "WatchEvent": 1, 
  "lng": null, 
  "GollumEvent": 4, 
  "CreateEvent": 3
 }, 
 {
  "lat": 33.490251, 
  "WatchEvent": 2, 
  "lng": -86.859181, 
  "name": "TUSCALOOSA AL"
 }, 
 {
  "lat": 39.4059421, 
  "lng": -76.2413442, 
  "CreateEvent": 1, 
  "name": "BALTIMORE/ANNAPOLIS, MD", 
  "PushEvent": 1
 }, 
 {
  "lat": -8.0581077, 
  "lng": -34.8979047, 
  "CreateEvent": 3, 
  "name": "RECIFE-PE, BRAZIL", 
  "PushEvent": 10
 }, 
 {
  "lat": 40.4864444, 
  "WatchEvent": 1, 
  "lng": -86.1336351, 
  "name": "KOKOMO, IN"
 }, 
 {
  "lat": 43.4849133, 
  "lng": -71.6553992, 
  "name": "NH, USA", 
  "PushEvent": 2
 }, 
 {
  "DownloadEvent": 9, 
  "name": "GODALMING, UK", 
  "PushEvent": 5, 
  "lat": 51.1857892, 
  "lng": -0.6149074, 
  "GollumEvent": 1
 }, 
 {
  "PublicEvent": 2, 
  "IssuesEvent": 2, 
  "PullRequestReviewCommentEvent": 2, 
  "DownloadEvent": 6, 
  "PullRequestEvent": 2, 
  "IssueCommentEvent": 3, 
  "PushEvent": 30, 
  "name": "LUXEMBOURG", 
  "CommitCommentEvent": 22, 
  "lat": 49.8158683, 
  "WatchEvent": 9, 
  "lng": 6.1296751, 
  "CreateEvent": 5, 
  "GollumEvent": 9
 }, 
 {
  "lat": -29.717352, 
  "lng": -52.4315622, 
  "name": "SANTA CRUZ DO SUL, RS, BRASIL", 
  "ForkEvent": 1
 }, 
 {
  "ForkEvent": 1, 
  "PushEvent": 18, 
  "name": "\u0130STANBUL", 
  "lat": 41.0170578, 
  "WatchEvent": 4, 
  "lng": 28.9855676, 
  "GollumEvent": 1, 
  "CreateEvent": 3
 }, 
 {
  "lat": 41.0339862, 
  "WatchEvent": 1, 
  "lng": -73.7629097, 
  "name": "WHITE PLAINS, NY"
 }, 
 {
  "lat": 53.7, 
  "WatchEvent": 2, 
  "lng": -1.583333, 
  "name": "WEST YORKSHIRE, UK"
 }, 
 {
  "lat": 52.2609102, 
  "lng": 5.6100689, 
  "name": "PUTTEN", 
  "PushEvent": 3
 }, 
 {
  "name": "CHELAN, WASHINGTON", 
  "IssueCommentEvent": 9, 
  "lat": 47.8409698, 
  "WatchEvent": 1, 
  "lng": -120.0164591, 
  "IssuesEvent": 6
 }, 
 {
  "name": "MONTREAL, QC, CANADA", 
  "PushEvent": 1, 
  "ForkEvent": 1, 
  "lat": 45.5224507, 
  "WatchEvent": 1, 
  "lng": -73.5912827, 
  "CreateEvent": 1
 }, 
 {
  "lat": null, 
  "WatchEvent": 1, 
  "lng": null, 
  "name": "JOGJAKARTA, INDONESIA"
 }, 
 {
  "lat": -30.0330556, 
  "lng": -51.23, 
  "CreateEvent": 7, 
  "name": "PORTO ALEGRE - RS , BRASIL", 
  "PushEvent": 7
 }, 
 {
  "lat": 40.1370746, 
  "lng": -75.3951096, 
  "name": "SOUTH JERSEY, USA", 
  "CreateEvent": 1
 }, 
 {
  "lat": 23.1397941, 
  "WatchEvent": 1, 
  "lng": 113.2817601, 
  "IssuesEvent": 1, 
  "name": "GZ,CHINA"
 }, 
 {
  "DownloadEvent": 1, 
  "PushEvent": 2, 
  "lat": 50.8117327, 
  "lng": 8.7757742, 
  "CreateEvent": 2, 
  "name": "MARBURG, GERMANY"
 }, 
 {
  "ForkEvent": 1, 
  "PullRequestEvent": 10, 
  "IssueCommentEvent": 6, 
  "PushEvent": 26, 
  "lat": 51.4535845, 
  "lng": -1.03182764758998, 
  "IssuesEvent": 3, 
  "name": "BERKSHIRE, ENGLAND"
 }, 
 {
  "lat": 35.6885203, 
  "lng": 139.7514388, 
  "name": "CHIYODA, TOKYO", 
  "PushEvent": 2
 }, 
 {
  "lat": 4.4973502, 
  "lng": 38.6611296, 
  "name": "IN THE WEB", 
  "ForkEvent": 1
 }, 
 {
  "name": "OHIO, UNITED STATES", 
  "PushEvent": 8, 
  "IssueCommentEvent": 13, 
  "lat": 40.2253569, 
  "WatchEvent": 1, 
  "lng": -82.6881395, 
  "IssuesEvent": 12
 }, 
 {
  "ForkEvent": 2, 
  "PullRequestEvent": 1, 
  "PushEvent": 2, 
  "lat": 48.754402, 
  "lng": -122.4788602, 
  "name": "BELLINGHAM, WA"
 }, 
 {
  "lat": 42.3756401, 
  "WatchEvent": 1, 
  "lng": -71.2358004, 
  "name": "WALTHAM, MA, USA"
 }, 
 {
  "lat": 32.0609158, 
  "lng": 118.7916065, 
  "name": "\u5357\u4eac CHINA", 
  "ForkEvent": 1
 }, 
 {
  "MemberEvent": 1, 
  "name": "VALENCIA, VE", 
  "DeleteEvent": 3, 
  "PushEvent": 46, 
  "lat": 10.1704877, 
  "lng": -68.0011214, 
  "CreateEvent": 3
 }, 
 {
  "lat": 44.5520105, 
  "WatchEvent": 1, 
  "lng": -69.6317121, 
  "name": "WATERVILLE, ME", 
  "PushEvent": 1
 }, 
 {
  "name": "OULU, FINLAND", 
  "IssueCommentEvent": 4, 
  "lat": 65.0118734, 
  "WatchEvent": 3, 
  "lng": 25.4716809, 
  "IssuesEvent": 2
 }, 
 {
  "ForkEvent": 1, 
  "PushEvent": 10, 
  "name": "GUADALAJARA", 
  "lat": 20.676143, 
  "lng": -103.3469982, 
  "CreateEvent": 3
 }, 
 {
  "lat": 14.5906074, 
  "WatchEvent": 1, 
  "lng": 120.9799013, 
  "name": "MANILA, PH"
 }, 
 {
  "lat": 50.4291723, 
  "lng": 2.8319805, 
  "CreateEvent": 1, 
  "name": "LENS", 
  "PushEvent": 11
 }, 
 {
  "lat": 56.1621073, 
  "WatchEvent": 1, 
  "lng": 15.5866422, 
  "name": "KARLSKRONA, SWEDEN"
 }, 
 {
  "lat": -8.4666145, 
  "lng": -51.3333976, 
  "name": "BRAS\u00edLIA, BRASIL", 
  "ForkEvent": 2
 }, 
 {
  "name": "LESLIE, MI", 
  "PullRequestEvent": 27, 
  "IssueCommentEvent": 21, 
  "PushEvent": 46, 
  "DeleteEvent": 11, 
  "CommitCommentEvent": 1, 
  "lat": 37.082981, 
  "lng": -83.3750732, 
  "CreateEvent": 25
 }, 
 {
  "PullRequestEvent": 2, 
  "lat": 38.4153421, 
  "lng": 27.144474, 
  "name": "\u0130ZMIR, T\u00fcRKIYE", 
  "PushEvent": 2
 }, 
 {
  "lat": 42.6511674, 
  "lng": -73.754968, 
  "PushEvent": 1, 
  "name": "ALBANY, NY, USA", 
  "CreateEvent": 1
 }, 
 {
  "name": "DUISBURG, GERMANY", 
  "GollumEvent": 2, 
  "PullRequestEvent": 12, 
  "IssueCommentEvent": 18, 
  "PushEvent": 74, 
  "DeleteEvent": 6, 
  "ForkEvent": 1, 
  "lat": 51.4465311, 
  "lng": 6.74163709836702, 
  "IssuesEvent": 8, 
  "CreateEvent": 16
 }, 
 {
  "name": "SAO PAULO - BRAZIL", 
  "PullRequestEvent": 1, 
  "PushEvent": 4, 
  "IssueCommentEvent": 1, 
  "lat": -21.9549806, 
  "WatchEvent": 3, 
  "lng": -49.0232348, 
  "GollumEvent": 1, 
  "CreateEvent": 2
 }, 
 {
  "lat": 63.0957722, 
  "lng": 21.6159187, 
  "name": "VAASA, FINLAND", 
  "CreateEvent": 12
 }, 
 {
  "lat": 53.1376127, 
  "lng": 87.4538219, 
  "name": "RUSSIA, KEMEROVO", 
  "PushEvent": 5
 }, 
 {
  "name": "GRZ/AT", 
  "PullRequestEvent": 1, 
  "PushEvent": 1, 
  "lat": 46.98818295, 
  "lng": 15.4397657211789, 
  "ForkEvent": 1
 }, 
 {
  "lat": -38.7399123, 
  "WatchEvent": 1, 
  "lng": -72.5899599, 
  "name": "TEMUCO , CHILE"
 }, 
 {
  "MemberEvent": 2, 
  "PullRequestReviewCommentEvent": 7, 
  "name": "WOKING, UK", 
  "PullRequestEvent": 23, 
  "IssueCommentEvent": 33, 
  "PushEvent": 48, 
  "CommitCommentEvent": 19, 
  "ForkApplyEvent": 1, 
  "lat": 51.3201822, 
  "WatchEvent": 1, 
  "lng": -0.5564448, 
  "IssuesEvent": 7, 
  "CreateEvent": 1
 }, 
 {
  "lat": 37.772764, 
  "WatchEvent": 1, 
  "lng": -3.788612, 
  "name": "SPAIN/JA\u00e9N"
 }, 
 {
  "name": "SACRAMENTO, CA, USA", 
  "PullRequestEvent": 3, 
  "IssueCommentEvent": 1, 
  "PushEvent": 43, 
  "lat": 38.4840756, 
  "lng": -121.0740108
 }, 
 {
  "MemberEvent": 8, 
  "name": "LI\u00e8GE, BELGIUM", 
  "IssueCommentEvent": 1, 
  "PushEvent": 43, 
  "lat": 50.645138, 
  "WatchEvent": 2, 
  "lng": 5.5734204, 
  "IssuesEvent": 2, 
  "GollumEvent": 1
 }, 
 {
  "IssuesEvent": 8, 
  "name": "WALNUT CREEK, CA", 
  "DeleteEvent": 2, 
  "IssueCommentEvent": 3, 
  "PushEvent": 74, 
  "lat": 37.894375, 
  "WatchEvent": 2, 
  "lng": -122.036438810635, 
  "GollumEvent": 17, 
  "CreateEvent": 7
 }, 
 {
  "lat": null, 
  "lng": null, 
  "IssuesEvent": 1, 
  "name": "SAN FRANCISCO, CA; ST. LOUIS, MO"
 }, 
 {
  "PullRequestReviewCommentEvent": 1, 
  "ForkEvent": 2, 
  "CreateEvent": 1, 
  "PullRequestEvent": 3, 
  "PushEvent": 5, 
  "IssueCommentEvent": 9, 
  "lat": null, 
  "lng": null, 
  "IssuesEvent": 1, 
  "name": "FRANCE, BELGIUM, WHATEVER"
 }, 
 {
  "lat": null, 
  "lng": null, 
  "name": "NATION TAIWAN UNIVERSITY", 
  "PushEvent": 6
 }, 
 {
  "DownloadEvent": 4, 
  "ForkEvent": 4, 
  "GollumEvent": 6, 
  "PullRequestEvent": 4, 
  "IssueCommentEvent": 12, 
  "PushEvent": 24, 
  "CommitCommentEvent": 1, 
  "lat": 40.3270127, 
  "WatchEvent": 1, 
  "lng": -86.1746933, 
  "IssuesEvent": 7, 
  "name": "INDIANA, USA"
 }, 
 {
  "lat": 40.1105875, 
  "lng": -88.2072697, 
  "name": "URBANA, ILLINOIS", 
  "ForkEvent": 1
 }, 
 {
  "ForkEvent": 1, 
  "PushEvent": 7, 
  "name": "MANILA, PHILIPPINES", 
  "lat": 14.5906074, 
  "WatchEvent": 5, 
  "lng": 120.9799013, 
  "CreateEvent": 1
 }, 
 {
  "lat": 39.952335, 
  "WatchEvent": 1, 
  "lng": -75.163789, 
  "name": "PHILADELPHIA PA, USA"
 }, 
 {
  "name": "HILLSBOROUGH, NJ", 
  "PullRequestEvent": 1, 
  "PushEvent": 6, 
  "lat": 40.4776044, 
  "lng": -74.6268245, 
  "CreateEvent": 3
 }, 
 {
  "lat": 38.637079, 
  "lng": -88.957454, 
  "name": "NORTHWEST ILLINOIS", 
  "CreateEvent": 1
 }, 
 {
  "name": "BERGISCH GLADBACH, GERMANY", 
  "PullRequestEvent": 2, 
  "IssueCommentEvent": 4, 
  "PushEvent": 5, 
  "lat": 50.9929303, 
  "WatchEvent": 1, 
  "lng": 7.1277379
 }, 
 {
  "lat": null, 
  "WatchEvent": 1, 
  "lng": null, 
  "name": "SNAILS'N CHEESE"
 }, 
 {
  "lat": 59.3307611, 
  "lng": 18.0613099, 
  "IssuesEvent": 1, 
  "name": "STOCKHOLM SWEDEN", 
  "ForkEvent": 1
 }, 
 {
  "lat": 29.0894152, 
  "WatchEvent": 1, 
  "lng": -110.9612378, 
  "name": "HERMOSILLO, SONORA"
 }, 
 {
  "lat": 43.0349931, 
  "WatchEvent": 1, 
  "lng": -87.922497, 
  "name": "MILWAUKEE, WI, USA"
 }, 
 {
  "lat": 55.0, 
  "lng": -114.9999999, 
  "name": "ALBERTA, CANADA.", 
  "ForkEvent": 1
 }, 
 {
  "name": "LEUVEN, BELGIUM", 
  "PullRequestEvent": 7, 
  "IssueCommentEvent": 3, 
  "PushEvent": 14, 
  "CommitCommentEvent": 1, 
  "lat": 50.8790369, 
  "WatchEvent": 2, 
  "lng": 4.7014992
 }, 
 {
  "DownloadEvent": 5, 
  "PushEvent": 6, 
  "name": "ALBUQUERQE, NM", 
  "lat": null, 
  "lng": null, 
  "GollumEvent": 12, 
  "CreateEvent": 1
 }, 
 {
  "PushEvent": 10, 
  "ForkEvent": 2, 
  "IssueCommentEvent": 1, 
  "name": "CORK, IRELAND", 
  "lat": 51.8979282, 
  "WatchEvent": 8, 
  "lng": -8.4705806, 
  "CreateEvent": 9
 }, 
 {
  "MemberEvent": 1, 
  "DownloadEvent": 3, 
  "name": "OHIO, USA", 
  "PullRequestEvent": 12, 
  "IssueCommentEvent": 13, 
  "PushEvent": 16, 
  "CommitCommentEvent": 28, 
  "ForkEvent": 5, 
  "lat": 40.2253569, 
  "WatchEvent": 1, 
  "lng": -82.6881395, 
  "IssuesEvent": 2, 
  "CreateEvent": 15
 }, 
 {
  "lat": 40.85864075, 
  "lng": -74.6110272713996, 
  "IssuesEvent": 2, 
  "name": "USA, NEW JERSEY"
 }, 
 {
  "PullRequestReviewCommentEvent": 3, 
  "name": "SAN MARCOS, TX", 
  "PullRequestEvent": 57, 
  "IssueCommentEvent": 34, 
  "PushEvent": 46, 
  "DeleteEvent": 3, 
  "ForkEvent": 1, 
  "lat": 29.8826436, 
  "lng": -97.9405828, 
  "CreateEvent": 33
 }, 
 {
  "lat": 32.03805805, 
  "WatchEvent": 1, 
  "lng": 118.84742796689, 
  "name": "CHINA NAN JING"
 }, 
 {
  "name": "SALZBURG, AUSTRIA", 
  "PushEvent": 12, 
  "lat": 47.8001977, 
  "WatchEvent": 1, 
  "lng": 13.0410592, 
  "GollumEvent": 1
 }, 
 {
  "lat": 50.85790405, 
  "lng": 5.69681910047491, 
  "name": "MAASTRICHT", 
  "PushEvent": 5
 }, 
 {
  "lat": -12.9816356, 
  "WatchEvent": 2, 
  "lng": -38.4820771, 
  "name": "SALVADOR/BA - BRAZIL", 
  "ForkEvent": 1
 }, 
 {
  "lat": 12.6500083, 
  "lng": -8.0000014, 
  "name": "BAMAKO, MALI", 
  "PushEvent": 6
 }, 
 {
  "ForkEvent": 2, 
  "PullRequestEvent": 14, 
  "PushEvent": 63, 
  "name": "CEDAR FALLS, IOWA", 
  "lat": 42.5277622, 
  "lng": -92.4454654, 
  "CreateEvent": 2
 }, 
 {
  "name": "SAO PAULO, SAO PAULO, BRAZIL", 
  "PullRequestEvent": 4, 
  "IssueCommentEvent": 11, 
  "PushEvent": 75, 
  "CommitCommentEvent": 1, 
  "lat": -21.9549806, 
  "WatchEvent": 3, 
  "lng": -49.0232348, 
  "IssuesEvent": 3, 
  "CreateEvent": 16
 }, 
 {
  "lat": 43.4655524, 
  "lng": -80.5217786, 
  "name": "WATERLOO, ON, CANADA", 
  "PushEvent": 6
 }, 
 {
  "lat": -5.0896403, 
  "WatchEvent": 3, 
  "lng": -42.809588, 
  "name": "TERESINA, BRASIL"
 }, 
 {
  "lat": -16.680882, 
  "WatchEvent": 2, 
  "lng": -49.2532691, 
  "name": "GOIANIA", 
  "PushEvent": 1
 }, 
 {
  "name": "C\u00e1DIZ, SPAIN", 
  "DeleteEvent": 3, 
  "PushEvent": 11, 
  "lat": 36.5216471, 
  "WatchEvent": 3, 
  "lng": -6.2826008, 
  "CreateEvent": 1
 }, 
 {
  "name": "NANJING,CHINA", 
  "PushEvent": 20, 
  "lat": 32.0609158, 
  "lng": 118.7916065, 
  "GollumEvent": 1, 
  "CreateEvent": 3
 }, 
 {
  "lat": 37.2333645, 
  "lng": -121.947273077603, 
  "CreateEvent": 1, 
  "name": "LOS GATOS", 
  "PushEvent": 1
 }, 
 {
  "lat": 52.1598645, 
  "lng": 4.4824271, 
  "CreateEvent": 1, 
  "name": "NETHERLANDS, LEIDEN", 
  "PushEvent": 10
 },