[
 {
  "lat": 56.1621073, 
  "lng": 15.5866422, 
  "name": "KARLSKRONA", 
  "IssueCommentEvent": 1
 }, 
 {
  "name": "BOISE, IDAHO", 
  "PushEvent": 4, 
  "lat": 43.615046, 
  "WatchEvent": 13, 
  "lng": -116.2044429, 
  "CreateEvent": 1
 }, 
 {
  "MemberEvent": 1, 
  "PushEvent": 113, 
  "ForkEvent": 51, 
  "GollumEvent": 3, 
  "PullRequestEvent": 8, 
  "IssueCommentEvent": 54, 
  "name": "NASHVILLE, TN", 
  "DeleteEvent": 2, 
  "CommitCommentEvent": 5, 
  "lat": 36.1949274, 
  "WatchEvent": 26, 
  "lng": -86.7417714, 
  "IssuesEvent": 13, 
  "PullRequestReviewCommentEvent": 1, 
  "CreateEvent": 33
 }, 
 {
  "lat": 22.3170491, 
  "lng": 114.1771532, 
  "IssuesEvent": 1, 
  "name": "KOWLOON, HONG KONG"
 }, 
 {
  "name": "MINSK/BELARUS", 
  "GollumEvent": 1, 
  "PullRequestEvent": 14, 
  "IssueCommentEvent": 7, 
  "PushEvent": 102, 
  "ForkEvent": 5, 
  "lat": 53.902253, 
  "WatchEvent": 8, 
  "CommitCommentEvent": 1, 
  "IssuesEvent": 2, 
  "lng": 27.561863, 
  "CreateEvent": 13
 }, 
 {
  "name": "CHESHIRE, UK", 
  "DeleteEvent": 4, 
  "PushEvent": 25, 
  "IssueCommentEvent": 2, 
  "PullRequestEvent": 3, 
  "lat": 53.166667, 
  "WatchEvent": 5, 
  "lng": -2.583333, 
  "CreateEvent": 9
 }, 
 {
  "lat": 53.1389753, 
  "WatchEvent": 1, 
  "lng": 8.2146017, 
  "name": "OLDENBURG, GERMANY"
 }, 
 {
  "lat": 35.3314525, 
  "lng": -80.9398554230769, 
  "CreateEvent": 3, 
  "name": "CHARLOTTE, NC, USA", 
  "PushEvent": 8
 }, 
 {
  "name": "BADEN-WUERTTEMBERG, GERMANY", 
  "PullRequestEvent": 1, 
  "IssueCommentEvent": 3, 
  "PushEvent": 6, 
  "lat": 48.6296972, 
  "WatchEvent": 28, 
  "lng": 9.1949534, 
  "CreateEvent": 2
 }, 
 {
  "lat": 48.7149, 
  "WatchEvent": 1, 
  "lng": 2.4908799, 
  "IssuesEvent": 3, 
  "name": "YERRES, FRANCE"
 }, 
 {
  "lat": 42.65717, 
  "lng": -71.1408776, 
  "name": "ANDOVER, MA", 
  "ForkEvent": 1
 }, 
 {
  "lat": -1.9508511, 
  "WatchEvent": 1, 
  "lng": 30.0615075, 
  "name": "KIGALI, RWANDA", 
  "ForkEvent": 1
 }, 
 {
  "lat": 55.0, 
  "lng": -114.9999999, 
  "CreateEvent": 58, 
  "name": "ALBERTA,CANADA", 
  "PushEvent": 88
 }, 
 {
  "ForkEvent": 1, 
  "PushEvent": 3, 
  "name": "CAMBRIDGEPORT, MA", 
  "CommitCommentEvent": 1, 
  "lat": 42.359611, 
  "lng": -71.1067156, 
  "CreateEvent": 2
 }, 
 {
  "name": "IBARAKI/JAPAN", 
  "PullRequestEvent": 1, 
  "IssueCommentEvent": 1, 
  "PushEvent": 2, 
  "lat": 36.34221995, 
  "WatchEvent": 2, 
  "lng": 140.264761211553, 
  "IssuesEvent": 2, 
  "CreateEvent": 1
 }, 
 {
  "lat": 54.7262869, 
  "lng": 55.9477285, 
  "IssuesEvent": 1, 
  "name": "\u0423\u0444\u0430", 
  "IssueCommentEvent": 3
 }, 
 {
  "lat": 49.2553, 
  "WatchEvent": 1, 
  "lng": 8.87722, 
  "name": "SINSHEIM, GERMANY"
 }, 
 {
  "lat": 46.48907255, 
  "WatchEvent": 1, 
  "lng": -80.99080085, 
  "name": "CITY OF GREATER SUDBURY", 
  "IssueCommentEvent": 1
 }, 
 {
  "ForkEvent": 2, 
  "PullRequestEvent": 1, 
  "IssueCommentEvent": 1, 
  "PushEvent": 4, 
  "lat": 59.9606739, 
  "WatchEvent": 1, 
  "lng": 30.1586551, 
  "CreateEvent": 1, 
  "name": "SPB"
 }, 
 {
  "name": "MONTPELIER, VT", 
  "PullRequestEvent": 2, 
  "PushEvent": 2, 
  "IssueCommentEvent": 8, 
  "lat": 44.260015, 
  "lng": -72.5753599
 }, 
 {
  "lat": null, 
  "WatchEvent": 1, 
  "lng": null, 
  "name": "\u798f\u5efa\u53a6\u95e8"
 }, 
 {
  "lat": null, 
  "WatchEvent": 1, 
  "lng": null, 
  "name": "EUROPE/CHISINAU"
 }, 
 {
  "ForkEvent": 1, 
  "PullRequestEvent": 1, 
  "PushEvent": 3, 
  "IssueCommentEvent": 14, 
  "CommitCommentEvent": 2, 
  "lat": -5.6781175, 
  "lng": -36.4781776, 
  "name": "RIO GRANDE DO NORTE, BRAZIL"
 }, 
 {
  "MemberEvent": 2, 
  "PublicEvent": 1, 
  "PullRequestReviewCommentEvent": 2, 
  "name": "PORTLAND", 
  "PullRequestEvent": 17, 
  "IssueCommentEvent": 15, 
  "PushEvent": 61, 
  "ForkEvent": 5, 
  "lat": 45.5202471, 
  "WatchEvent": 14, 
  "lng": -122.6741949, 
  "IssuesEvent": 3, 
  "CreateEvent": 31
 }, 
 {
  "name": "LEXINGTON, MA", 
  "PullRequestEvent": 1, 
  "PushEvent": 1, 
  "lat": 42.4473175, 
  "lng": -71.2245003, 
  "CreateEvent": 1
 }, 
 {
  "ForkEvent": 2, 
  "PullRequestEvent": 3, 
  "IssueCommentEvent": 1, 
  "PushEvent": 13, 
  "lat": 52.2319237, 
  "lng": 21.0067265, 
  "name": "WARSZAWA"
 }, 
 {
  "PushEvent": 10, 
  "ForkEvent": 1, 
  "PullRequestEvent": 1, 
  "IssueCommentEvent": 1, 
  "name": "THE WOODLANDS, TX", 
  "lat": 30.1733046, 
  "WatchEvent": 13, 
  "lng": -95.5047303, 
  "CreateEvent": 3
 }, 
 {
  "lat": 39.481162, 
  "WatchEvent": 1, 
  "lng": -74.623748, 
  "name": "LEIPZIG, COLOGNE"
 }, 
 {
  "lat": 37.6399625, 
  "WatchEvent": 1, 
  "lng": -120.910842100962, 
  "name": "MODESTO, CA"
 }, 
 {
  "ForkEvent": 2, 
  "PushEvent": 5, 
  "name": "FOSTER CITY CA, USA", 
  "lat": 37.5600336, 
  "WatchEvent": 6, 
  "lng": -122.2688522, 
  "IssuesEvent": 3, 
  "CreateEvent": 1
 }, 
 {
  "PushEvent": 15, 
  "ForkEvent": 2, 
  "PullRequestEvent": 2, 
  "IssueCommentEvent": 2, 
  "name": "VERO BEACH, FL", 
  "DeleteEvent": 1, 
  "lat": 27.6387163, 
  "lng": -80.3975399, 
  "IssuesEvent": 1, 
  "CreateEvent": 5
 }, 
 {
  "lat": 48.5141594, 
  "WatchEvent": 5, 
  "lng": -2.7602707, 
  "name": "SAINT-BRIEUC, FRANCE"
 }, 
 {
  "lat": null, 
  "WatchEvent": 1, 
  "lng": null, 
  "name": "ILLADEL, PA - LIVE WITHOUT AT DJ"
 }, 
 {
  "lat": 42.6511674, 
  "WatchEvent": 1, 
  "lng": -73.754968, 
  "name": "ALBANY NY"
 }, 
 {
  "lat": 51.5072759, 
  "lng": -0.1276597, 
  "name": "LONDINIUM", 
  "PushEvent": 1
 }, 
 {
  "lat": 43.5499749, 
  "lng": -96.700327, 
  "IssuesEvent": 6, 
  "name": "SIOUX FALLS, SD, USA", 
  "IssueCommentEvent": 5
 }, 
 {
  "name": "GRAND RAPIDS, MICHIGAN", 
  "PushEvent": 2, 
  "IssueCommentEvent": 4, 
  "lat": 42.9633599, 
  "WatchEvent": 3, 
  "lng": -85.6680863, 
  "IssuesEvent": 7
 }, 
 {
  "lat": 18.4464186, 
  "WatchEvent": 2, 
  "lng": -66.0755069, 
  "name": "SAN JUAN, PR"
 }, 
 {
  "lat": 19.4325301, 
  "WatchEvent": 1, 
  "lng": -99.1332102, 
  "name": "MEXICO,D.F"
 }, 
 {
  "lat": null, 
  "lng": null, 
  "name": "LONDON UK/SAN FRANCISCO US", 
  "GollumEvent": 1
 }, 
 {
  "ForkEvent": 1, 
  "IssueCommentEvent": 2, 
  "lat": -27.4689682, 
  "WatchEvent": 2, 
  "lng": 153.0234991, 
  "name": "BRISBANE AUSTRALIA"
 }, 
 {
  "lat": -29.624257, 
  "lng": -50.83118, 
  "name": "PAROB\u00e9, RS", 
  "CreateEvent": 1
 }, 
 {
  "lat": 56.877104, 
  "WatchEvent": 3, 
  "lng": 53.2373264, 
  "name": "\u0420\u043e\u0441\u0441\u0438\u044f, \u0433.\u0418\u0436\u0435\u0432\u0441\u043a"
 }, 
 {
  "PushEvent": 6, 
  "ForkEvent": 4, 
  "PullRequestEvent": 3, 
  "IssueCommentEvent": 2, 
  "name": "EVANSVILLE, INDIANA", 
  "lat": 37.9747645, 
  "lng": -87.5558483, 
  "IssuesEvent": 1, 
  "CreateEvent": 1
 }, 
 {
  "lat": 39.0437192, 
  "WatchEvent": 1, 
  "lng": -77.4874899, 
  "name": "ASHBURN,VA"
 }, 
 {
  "lat": 32.9481789, 
  "lng": -96.7297206, 
  "CreateEvent": 2, 
  "name": "RICHARDSON, TX", 
  "PushEvent": 16
 }, 
 {
  "lat": 49.60970325, 
  "WatchEvent": 1, 
  "lng": 6.12090427879339, 
  "name": "FRANCE - LUXEMBOURG"
 }, 
 {
  "lat": 50.1499, 
  "lng": 18.83953, 
  "name": "\u0141AZISKA G\u00f3RNE", 
  "PushEvent": 19
 }, 
 {
  "ForkEvent": 4, 
  "GollumEvent": 1, 
  "PullRequestEvent": 4, 
  "PushEvent": 64, 
  "IssueCommentEvent": 3, 
  "lat": 33.4146319, 
  "WatchEvent": 34, 
  "lng": -111.9093793, 
  "IssuesEvent": 6, 
  "name": "TEMPE, AZ"
 }, 
 {
  "name": "MINNEAPOLIS, MINNESOTA, USA", 
  "PullRequestEvent": 1, 
  "PushEvent": 1, 
  "lat": 44.9772995, 
  "WatchEvent": 4, 
  "lng": -93.2654692, 
  "ForkEvent": 1
 }, 
 {
  "lat": 44.9521394, 
  "lng": 34.1024575, 
  "name": "SIMFEROPOL, UA", 
  "PushEvent": 2
 }, 
 {
  "name": "INDORE, INDIA", 
  "PushEvent": 3, 
  "lat": 22.7131434, 
  "WatchEvent": 5, 
  "lng": 75.8064175124164, 
  "CreateEvent": 2
 }, 
 {
  "lat": null, 
  "lng": null, 
  "IssuesEvent": 1, 
  "name": "DURHAM, NC, Y'ALL"
 }, 
 {
  "name": "RALEIGH, NORTH CAROLINA", 
  "DeleteEvent": 2, 
  "PushEvent": 4, 
  "PullRequestEvent": 1, 
  "CommitCommentEvent": 1, 
  "lat": 35.7804015, 
  "WatchEvent": 1, 
  "lng": -78.6390779, 
  "IssuesEvent": 1, 
  "CreateEvent": 2
 }, 
 {
  "IssuesEvent": 2, 
  "name": "KYOTO, JAPAN", 
  "DeleteEvent": 1, 
  "IssueCommentEvent": 5, 
  "PushEvent": 56, 
  "PullRequestEvent": 1, 
  "ForkEvent": 2, 
  "lat": 35.0185804, 
  "WatchEvent": 13, 
  "lng": 135.763835, 
  "GollumEvent": 17, 
  "CreateEvent": 16
 }, 
 {
  "lat": 34.1683386, 
  "lng": -118.6059197, 
  "IssuesEvent": 1, 
  "name": "WOODLAND HILLS, CA"
 }, 
 {
  "lat": null, 
  "lng": null, 
  "name": "KYIV, UKARINE", 
  "PushEvent": 4
 }, 
 {
  "name": "SALEM, OR", 
  "PushEvent": 1, 
  "CommitCommentEvent": 1, 
  "lat": 44.9391565, 
  "lng": -123.033121, 
  "ForkEvent": 4
 }, 
 {
  "name": "CORAL SPRINGS, FL", 
  "PushEvent": 1, 
  "lat": 26.26569405, 
  "WatchEvent": 2, 
  "lng": -80.2653395734081, 
  "CreateEvent": 1
 }, 
 {
  "lat": null, 
  "WatchEvent": 1, 
  "lng": null, 
  "name": "VENUZ"
 }, 
 {
  "MemberEvent": 2, 
  "name": "OAKLAND", 
  "GollumEvent": 20, 
  "DeleteEvent": 2, 
  "IssueCommentEvent": 27, 
  "PushEvent": 180, 
  "PullRequestEvent": 1, 
  "ForkEvent": 2, 
  "lat": 37.8043808, 
  "WatchEvent": 4, 
  "lng": -122.2708166, 
  "IssuesEvent": 22, 
  "CreateEvent": 14
 }, 
 {
  "lat": 46.7693367, 
  "lng": 23.5900604, 
  "name": "CLUJ-NAPOCA", 
  "ForkEvent": 1
 }, 
 {
  "lat": 54.8981112, 
  "WatchEvent": 1, 
  "lng": 23.9113098, 
  "name": "KAUNAS"
 }, 
 {
  "MemberEvent": 1, 
  "PullRequestReviewCommentEvent": 8, 
  "name": "MEXICO", 
  "PullRequestEvent": 18, 
  "IssueCommentEvent": 14, 
  "PushEvent": 142, 
  "ForkEvent": 4, 
  "lat": 22.5000485, 
  "WatchEvent": 6, 
  "lng": -100.0000375, 
  "GollumEvent": 1, 
  "CreateEvent": 16
 }, 
 {
  "lat": 48.1926008, 
  "WatchEvent": 5, 
  "lng": 16.3377163, 
  "name": "VIENNA, EUROPE"
 }, 
 {
  "lat": 33.7458511, 
  "WatchEvent": 2, 
  "lng": -117.826166, 
  "name": "TUSTIN, CA"
 }, 
 {
  "IssuesEvent": 1, 
  "name": "BROOKLYN \u21c4 NEW HAVEN", 
  "PullRequestEvent": 6, 
  "PushEvent": 27, 
  "IssueCommentEvent": 5, 
  "DeleteEvent": 5, 
  "ForkEvent": 2, 
  "lat": null, 
  "WatchEvent": 4, 
  "CommitCommentEvent": 1, 
  "GollumEvent": 12, 
  "lng": null, 
  "CreateEvent": 12
 }, 
 {
  "ForkEvent": 1, 
  "PushEvent": 3, 
  "name": "SABADELL", 
  "lat": 41.5464208, 
  "lng": 2.1087937, 
  "CreateEvent": 1
 }, 
 {
  "lat": 35.6585739, 
  "WatchEvent": 1, 
  "lng": 139.7454437, 
  "name": "TOKYO,MINATO-KU"
 }, 
 {
  "name": "MINNEAPOLIS MN", 
  "PushEvent": 1, 
  "ForkEvent": 3, 
  "lat": 44.9772995, 
  "lng": -93.2654692, 
  "CreateEvent": 1
 }, 
 {
  "lat": 43.4113604, 
  "WatchEvent": 1, 
  "lng": -106.2800243, 
  "name": "MIDWEST, USA"
 }, 
 {
  "lat": 30.1896756, 
  "WatchEvent": 1, 
  "lng": -82.6392899, 
  "name": "LAKE CITY, FL, US"
 }, 
 {
  "lat": 46.3087349, 
  "WatchEvent": 1, 
  "lng": 7.4703866, 
  "name": "GREEN SWITZERLAND"
 }, 
 {
  "IssuesEvent": 1, 
  "name": "UK, LATVIA", 
  "PushEvent": 72, 
  "lat": 51.5223237, 
  "WatchEvent": 6, 
  "lng": -0.1534274, 
  "GollumEvent": 6, 
  "CreateEvent": 4
 }, 
 {
  "lat": 45.807918, 
  "WatchEvent": 1, 
  "lng": 13.525139, 
  "name": "FALKENBERG"
 }, 
 {
  "lat": 43.4925843, 
  "WatchEvent": 1, 
  "lng": -70.4533844, 
  "name": "BIDDEFORD, ME"
 }, 
 {
  "lat": 27.6960504, 
  "lng": -82.7380501, 
  "CreateEvent": 1, 
  "name": "ST. PETE", 
  "PushEvent": 7
 }, 
 {
  "name": "SHERBROOKE, QC CANADA", 
  "IssueCommentEvent": 2, 
  "lat": 45.4029964, 
  "WatchEvent": 5, 
  "lng": -71.887681, 
  "IssuesEvent": 1
 }, 
 {
  "lat": 33.6777967, 
  "lng": -116.2958727, 
  "name": "LA QUINTA, CA", 
  "ForkEvent": 1
 }, 
 {
  "lat": 45.6989107, 
  "WatchEvent": 2, 
  "lng": 8.4623673, 
  "name": "BORGOMANERO, NO, ITALY"
 }, 
 {
  "name": "BERMUDA", 
  "PullRequestEvent": 10, 
  "PushEvent": 16, 
  "IssueCommentEvent": 58, 
  "CommitCommentEvent": 5, 
  "ForkEvent": 2, 
  "lat": 32.3018217, 
  "WatchEvent": 8, 
  "lng": -64.7603583, 
  "IssuesEvent": 4, 
  "CreateEvent": 5
 }, 
 {
  "lat": 39.0840054, 
  "WatchEvent": 1, 
  "lng": -77.1527573, 
  "name": "ROCKVILLE, MD USA"
 }, 
 {
  "lat": 49.9999952, 
  "WatchEvent": 4, 
  "lng": 8.2710237, 
  "name": "MAINZ"
 }, 
 {
  "name": "ITAPERUNA/RJ", 
  "PullRequestEvent": 1, 
  "PushEvent": 1, 
  "lat": -21.2048, 
  "lng": -41.88801, 
  "ForkEvent": 1
 }, 
 {
  "ForkEvent": 3, 
  "CreateEvent": 1, 
  "IssueCommentEvent": 6, 
  "PushEvent": 80, 
  "PullRequestEvent": 1, 
  "lat": 36.145204, 
  "WatchEvent": 14, 
  "lng": -115.1611806, 
  "IssuesEvent": 2, 
  "name": "LAS VEGAS, NV"
 }, 
 {
  "lat": 44.40726, 
  "lng": 8.9338624, 
  "name": "GENOA - ITALY", 
  "IssueCommentEvent": 1
 }, 
 {
  "name": "PORTO ALEGRE - BRASIL", 
  "IssueCommentEvent": 2, 
  "PushEvent": 3, 
  "lat": -30.0330556, 
  "lng": -51.23, 
  "ForkEvent": 4
 }, 
 {
  "PublicEvent": 1, 
  "name": "MAINE", 
  "IssueCommentEvent": 6, 
  "PushEvent": 9, 
  "lat": 45.709097, 
  "WatchEvent": 74, 
  "lng": -68.8590201, 
  "IssuesEvent": 2, 
  "CreateEvent": 3
 }, 
 {
  "lat": null, 
  "WatchEvent": 1, 
  "lng": null, 
  "name": "\u5927\u90fd\u4f1a\u5ca1\u5c71"
 }, 
 {
  "lat": 56.1496278, 
  "WatchEvent": 1, 
  "lng": 10.2134046, 
  "name": "AARHUS", 
  "IssueCommentEvent": 2
 }, 
 {
  "lat": null, 
  "lng": null, 
  "name": "THE BEST CITY IN THE WORLD: NEW ORLEANS. WHO DAT!", 
  "IssueCommentEvent": 1
 }, 
 {
  "name": "NORTH WEST ENGLAND", 
  "PushEvent": 3, 
  "IssueCommentEvent": 3, 
  "lat": 54.0680718, 
  "lng": -2.68505196718861, 
  "IssuesEvent": 3, 
  "CreateEvent": 2
 }, 
 {
  "ForkEvent": 1, 
  "PullRequestEvent": 2, 
  "PushEvent": 28, 
  "name": "HORSHAM, UK", 
  "DeleteEvent": 1, 
  "CommitCommentEvent": 3, 
  "lat": 51.0630273, 
  "lng": -0.3295028, 
  "CreateEvent": 4
 }, 
 {
  "lat": 51.3577539, 
  "WatchEvent": 2, 
  "lng": -2.199384, 
  "name": "MIDLANDS, UK", 
  "CreateEvent": 1
 }, 
 {
  "lat": 55.83402615, 
  "lng": 37.6218558959369, 
  "name": "RUSSIA / MOSCOW", 
  "ForkEvent": 1
 }, 
 {
  "name": "LA", 
  "PullRequestEvent": 2, 
  "PushEvent": 1, 
  "IssueCommentEvent": 1, 
  "lat": null, 
  "lng": null, 
  "CreateEvent": 1
 }, 
 {
  "name": "HANNOVER, GERMANY", 
  "CreateEvent": 4, 
  "PullRequestEvent": 15, 
  "IssueCommentEvent": 43, 
  "PushEvent": 242, 
  "CommitCommentEvent": 17, 
  "ForkEvent": 4, 
  "lat": 52.3744779, 
  "WatchEvent": 29, 
  "lng": 9.7385532, 
  "IssuesEvent": 18, 
  "GollumEvent": 5
 }, 
 {
  "lat": 49.8158683, 
  "WatchEvent": 1, 
  "lng": 6.1296751, 
  "name": "LU"
 }, 
 {
  "lat": 48.8521015, 
  "WatchEvent": 2, 
  "lng": 2.3374937, 
  "name": "TOURS/PARIS - FRANCE"
 }, 
 {
  "lat": 39.9272459, 
  "lng": 32.8520044, 
  "name": "ANKARA / TURKEY", 
  "PushEvent": 4
 }, 
 {
  "ForkEvent": 1, 
  "PullRequestEvent": 1, 
  "IssueCommentEvent": 3, 
  "name": "LANCASTER", 
  "lat": 40.03997225, 
  "lng": -76.3064177339532, 
  "CreateEvent": 1
 }, 
 {
  "lat": null, 
  "lng": null, 
  "name": "BRAZIL - RS - PELOTAS", 
  "CreateEvent": 2
 }, 
 {
  "lat": 49.98552455, 
  "lng": 11.6392631579707, 
  "name": "BYU", 
  "GollumEvent": 1
 }, 
 {
  "name": "SAINT GEORGE UTAH", 
  "GollumEvent": 1, 
  "DeleteEvent": 3, 
  "PushEvent": 49, 
  "lat": 37.104153, 
  "WatchEvent": 1, 
  "lng": -113.5841313, 
  "IssuesEvent": 1, 
  "CreateEvent": 6
 }, 
 {
  "lat": 45.0049305, 
  "lng": -122.7832947, 
  "name": "SILVERTON, OR", 
  "IssueCommentEvent": 1
 }, 
 {
  "name": "MIAMI BEACH, FL", 
  "PullRequestEvent": 10, 
  "IssueCommentEvent": 7, 
  "PushEvent": 8, 
  "ForkEvent": 1, 
  "lat": 25.7881436, 
  "WatchEvent": 1, 
  "lng": -80.1272705, 
  "CreateEvent": 1
 }, 
 {
  "lat": null, 
  "lng": null, 
  "name": "HTTP://WEBCHAT.FREENODE.NET/?CHANNELS=#UNHOSTED", 
  "ForkEvent": 1
 }, 
 {
  "PushEvent": 116, 
  "ForkEvent": 9, 
  "PullRequestEvent": 9, 
  "IssueCommentEvent": 13, 
  "name": "TOKYO/JAPAN", 
  "DeleteEvent": 1, 
  "CommitCommentEvent": 7, 
  "lat": 35.6800712, 
  "WatchEvent": 46, 
  "lng": 139.7685224, 
  "IssuesEvent": 5, 
  "PullRequestReviewCommentEvent": 1, 
  "CreateEvent": 10
 }, 
 {
  "ForkEvent": 4, 
  "PullRequestEvent": 1, 
  "IssueCommentEvent": 7, 
  "PushEvent": 3, 
  "name": "MANCHESTER NH", 
  "lat": 42.9956397, 
  "lng": -71.4547891, 
  "IssuesEvent": 1, 
  "CreateEvent": 2
 }, 
 {
  "lat": -19.9227318, 
  "IssueCommentEvent": 1, 
  "lng": -43.9450948, 
  "name": "BELO HORIZONTE - MG", 
  "PushEvent": 2
 }, 
 {
  "PullRequestEvent": 1, 
  "lat": 43.9582272, 
  "lng": -91.7807784, 
  "name": "WINONA, MN USA", 
  "PushEvent": 10
 }, 
 {
  "PullRequestReviewCommentEvent": 2, 
  "name": "SALT LAKE CITY, UT, USA", 
  "PullRequestEvent": 9, 
  "IssueCommentEvent": 5, 
  "PushEvent": 5, 
  "DeleteEvent": 2, 
  "lat": 40.7606467, 
  "lng": -111.89109, 
  "IssuesEvent": 2, 
  "CreateEvent": 9
 }, 
 {
  "lat": 8.5, 
  "lng": 39.55, 
  "name": "ORISSA", 
  "ForkEvent": 1
 }, 
 {
  "lat": 64.24439715, 
  "lng": -21.768262199674, 
  "IssuesEvent": 1, 
  "name": "REYKJAV\u00edK", 
  "IssueCommentEvent": 3
 }, 
 {
  "lat": 45.9177494, 
  "lng": 14.2299429, 
  "CreateEvent": 1, 
  "name": "LOGATEC, SLOVENIA", 
  "PushEvent": 12
 }, 
 {
  "lat": 52.4266702, 
  "WatchEvent": 2, 
  "lng": 12.5615792564476, 
  "name": "BRANDENBURG AN DER HAVEL"
 }, 
 {
  "lat": 34.0234337, 
  "WatchEvent": 1, 
  "lng": -84.6154897, 
  "name": "KENNESAW, GA", 
  "CreateEvent": 1
 }, 
 {
  "ForkEvent": 2, 
  "PullRequestEvent": 6, 
  "PushEvent": 40, 
  "name": "TOPANGA, CALIFORNIA", 
  "CommitCommentEvent": 1, 
  "lat": 34.0936181, 
  "WatchEvent": 6, 
  "lng": -118.6014735, 
  "CreateEvent": 2
 }, 
 {
  "lat": null, 
  "WatchEvent": 7, 
  "lng": null, 
  "name": "STE ANNE, GUADELOUPE, FWI"
 }, 
 {
  "ForkEvent": 1, 
  "PushEvent": 5, 
  "lat": 45.625371, 
  "WatchEvent": 7, 
  "lng": 8.783435, 
  "name": "SAMARATE, ITALY"
 }, 
 {
  "lat": 45.4666211, 
  "lng": 9.1906166, 
  "CreateEvent": 1, 
  "name": "MILANO, ITALIA", 
  "PushEvent": 10
 }, 
 {
  "lat": 40.2453741, 
  "WatchEvent": 1, 
  "lng": -75.6496302, 
  "name": "POTTSTOWN, PA USA"
 }, 
 {
  "lat": 49.566667, 
  "WatchEvent": 2, 
  "lng": -121.433333, 
  "name": "YALE"
 }, 
 {
  "lat": 32.647691, 
  "WatchEvent": 13, 
  "lng": -96.9170435699782, 
  "name": "DUNCANVILLE, TX"
 }, 
 {
  "lat": 46.4713468, 
  "lng": 30.7296333, 
  "name": "ODESSA", 
  "ForkEvent": 1
 }, 
 {
  "lat": 35.0737835, 
  "WatchEvent": 1, 
  "lng": -85.1068214087091, 
  "name": "CHATTANOOGA"
 }, 
 {
  "PublicEvent": 2, 
  "ForkEvent": 2, 
  "PushEvent": 7, 
  "lat": 49.99026, 
  "WatchEvent": 2, 
  "lng": 36.2303797, 
  "name": "KHARKOV"
 }, 
 {
  "lat": 18.6979546, 
  "WatchEvent": 11, 
  "lng": 98.6179620529052, 
  "name": "CHIANG MAI, THAILAND"
 }, 
 {
  "lat": 14.6425158, 
  "lng": -90.5131377, 
  "PushEvent": 2, 
  "name": "GUATEMALA CITY", 
  "IssueCommentEvent": 2
 }, 
 {
  "ForkEvent": 4, 
  "PullRequestEvent": 2, 
  "IssueCommentEvent": 9, 
  "PushEvent": 13, 
  "lat": 14.5568853, 
  "WatchEvent": 3, 
  "lng": 121.023532, 
  "IssuesEvent": 5, 
  "name": "MAKATI, PHILIPPINES"
 }, 
 {
  "name": "MENSK", 
  "PullRequestEvent": 1, 
  "PushEvent": 1, 
  "lat": null, 
  "lng": null, 
  "ForkEvent": 1
 }, 
 {
  "lat": 45.9511581, 
  "WatchEvent": 2, 
  "lng": -59.7886631, 
  "name": "CAPE BRETON, NS"
 }, 
 {
  "lat": null, 
  "lng": null, 
  "name": "DOMINICAN RAPUBLIC", 
  "PushEvent": 1
 }, 
 {
  "PushEvent": 4, 
  "ForkEvent": 1, 
  "PullRequestEvent": 2, 
  "IssueCommentEvent": 2, 
  "name": "CEDAR RAPIDS, IA", 
  "lat": 41.9758872, 
  "lng": -91.6704053, 
  "CreateEvent": 1
 }, 
 {
  "lat": 46.3938843, 
  "lng": -63.7887041, 
  "name": "SUMMERSIDE, PEI, CANADA", 
  "PushEvent": 1
 }, 
 {
  "name": "WROC\u0142AW, PL", 
  "DeleteEvent": 1, 
  "IssueCommentEvent": 3, 
  "PushEvent": 22, 
  "CommitCommentEvent": 5, 
  "lat": 51.1263706, 
  "WatchEvent": 8, 
  "lng": 16.9780831265633, 
  "IssuesEvent": 1, 
  "CreateEvent": 2
 }, 
 {
  "lat": -33.4379935, 
  "WatchEvent": 1, 
  "lng": -70.6503976, 
  "name": "SANTIAGO- CHILE"
 }, 
 {
  "name": "CH-8753 MOLLIS, SWITZERLAND", 
  "PullRequestEvent": 2, 
  "PushEvent": 15, 
  "CommitCommentEvent": 1, 
  "ForkEvent": 1, 
  "lat": null, 
  "lng": null, 
  "GollumEvent": 1, 
  "CreateEvent": 2
 }, 
 {
  "lat": 50.08601175, 
  "lng": 14.4050233081591, 
  "CreateEvent": 1, 
  "name": "CZECH REPUBLIC/PRAGUE", 
  "ForkEvent": 1
 }, 
 {
  "ForkEvent": 2, 
  "PushEvent": 6, 
  "name": "FINLAND, LAPPEENRANTA", 
  "lat": 61.0582424, 
  "lng": 28.1875302, 
  "CreateEvent": 1
 }, 
 {
  "lat": 51.9228958, 
  "WatchEvent": 2, 
  "lng": 4.4631727, 
  "name": "ROTTERDAM,NL", 
  "ForkEvent": 1
 }, 
 {
  "name": "GATESHEAD, UK", 
  "IssueCommentEvent": 1, 
  "PushEvent": 9, 
  "lat": 54.9311755, 
  "WatchEvent": 2, 
  "lng": -1.68564821041333, 
  "IssuesEvent": 2, 
  "CreateEvent": 8
 }, 
 {
  "lat": null, 
  "lng": null, 
  "IssuesEvent": 1, 
  "name": "BEHIND YOU."
 }, 
 {
  "lat": 29.8565903, 
  "WatchEvent": 1, 
  "lng": 77.8959028850772, 
  "name": "IIT ROORKEE", 
  "PushEvent": 5
 }, 
 {
  "lat": 46.2017559, 
  "WatchEvent": 1, 
  "lng": 6.1466014, 
  "name": "GENEVA SWITZERLAND", 
  "PushEvent": 33
 }, 
 {
  "lat": null, 
  "IssueCommentEvent": 1, 
  "lng": null, 
  "name": "SILICON VALLEY, CA, USA", 
  "ForkEvent": 1
 }, 
 {
  "name": "BLACKSBURG, VA, USA", 
  "PullRequestEvent": 4, 
  "PushEvent": 1, 
  "CommitCommentEvent": 1, 
  "lat": 37.2295733, 
  "lng": -80.4139393, 
  "CreateEvent": 4
 }, 
 {
  "lat": 41.5833658, 
  "lng": -87.500043, 
  "CreateEvent": 1, 
  "name": "HAMMOND IN", 
  "PushEvent": 1
 }, 
 {
  "lat": -30.0330556, 
  "WatchEvent": 1, 
  "lng": -51.23, 
  "name": "PORTO ALEGRE / BRAZIL"
 }, 
 {
  "ForkEvent": 1, 
  "IssueCommentEvent": 3, 
  "lat": 43.2629642, 
  "lng": -2.9349478, 
  "IssuesEvent": 2, 
  "name": "BILBAO"
 }, 
 {
  "lat": 44.868823, 
  "lng": 13.8461349, 
  "PushEvent": 1, 
  "name": "PULA, CROATIA", 
  "IssueCommentEvent": 8
 }, 
 {
  "PushEvent": 301, 
  "ForkEvent": 18, 
  "PullRequestEvent": 12, 
  "IssueCommentEvent": 21, 
  "name": "OAKLAND, CA", 
  "CommitCommentEvent": 1, 
  "lat": 37.8043808, 
  "WatchEvent": 39, 
  "lng": -122.2708166, 
  "IssuesEvent": 5, 
  "CreateEvent": 42
 }, 
 {
  "lat": null, 
  "lng": null, 
  "name": "JAZZGUMPY", 
  "PushEvent": 7
 }, 
 {
  "lat": 35.33310525, 
  "lng": 139.617924973507, 
  "PushEvent": 2, 
  "name": "YOKOHAMA-CITY KANAGAWA, JAPAN", 
  "CreateEvent": 3
 }, 
 {
  "PullRequestReviewCommentEvent": 1, 
  "name": "S\u00e3O PAULO, SP, BRASIL", 
  "PullRequestEvent": 3, 
  "IssueCommentEvent": 5, 
  "PushEvent": 5, 
  "ForkEvent": 2, 
  "lat": -23.5503279, 
  "WatchEvent": 2, 
  "lng": -46.6339647, 
  "IssuesEvent": 5, 
  "CreateEvent": 2
 }, 
 {
  "lat": null, 
  "lng": null, 
  "name": "SUNNY FLORIDA, U.S.A.", 
  "GollumEvent": 3
 }, 
 {
  "lat": -2.2010072, 
  "WatchEvent": 2, 
  "lng": -79.8818938, 
  "name": "GUAYAQUIL, ECUADOR"
 }, 
 {
  "name": "ARGENTINA - TUCUMAN", 
  "PullRequestEvent": 1, 
  "PushEvent": 3, 
  "IssueCommentEvent": 7, 
  "lat": -26.8358321, 
  "lng": -65.1083011, 
  "IssuesEvent": 4
 }, 
 {
  "lat": 35.8867418, 
  "WatchEvent": 3, 
  "lng": -92.4292259, 
  "name": "SEARCY, AR"
 }, 
 {
  "lat": null, 
  "WatchEvent": 1, 
  "lng": null, 
  "name": "SAN FRANCISCO, PISA, BARCELONA, GENEVA"
 }, 
 {
  "name": "VLADIVOSTOK, RUSSIA", 
  "PushEvent": 1, 
  "lat": 43.1152835, 
  "WatchEvent": 1, 
  "lng": 131.8854009, 
  "ForkEvent": 3
 }, 
 {
  "name": "BERGAMO, ITALY", 
  "CreateEvent": 1, 
  "PullRequestEvent": 3, 
  "IssueCommentEvent": 1, 
  "PushEvent": 3, 
  "lat": 45.6979811, 
  "WatchEvent": 1, 
  "lng": 9.668953, 
  "IssuesEvent": 1, 
  "ForkEvent": 4
 }, 
 {
  "ForkEvent": 1, 
  "PushEvent": 20, 
  "name": "CEBU CITY, PHILIPPINES", 
  "lat": 10.3090298, 
  "WatchEvent": 2, 
  "lng": 123.8930839, 
  "GollumEvent": 2, 
  "CreateEvent": 3
 }, 
 {
  "lat": 34.486524, 
  "lng": 126.26361, 
  "name": "JINDO, SOUTH KOREA", 
  "GollumEvent": 1
 }, 
 {
  "lat": 1.4419683, 
  "lng": 38.4313975, 
  "name": "KENYA", 
  "PushEvent": 20
 }, 
 {
  "name": "ALHAMBRA, CA, USA", 
  "PullRequestEvent": 6, 
  "IssueCommentEvent": 36, 
  "PushEvent": 71, 
  "DeleteEvent": 1, 
  "lat": 34.0855425, 
  "WatchEvent": 7, 
  "lng": -118.134419455061, 
  "IssuesEvent": 5, 
  "CreateEvent": 17
 }, 
 {
  "name": "SAIGON, VIETNAM", 
  "PullRequestEvent": 1, 
  "IssueCommentEvent": 2, 
  "PushEvent": 2, 
  "lat": 10.7827445, 
  "WatchEvent": 1, 
  "lng": 106.6948984, 
  "CreateEvent": 1
 }, 
 {
  "lat": 38.3031837, 
  "WatchEvent": 2, 
  "lng": -77.4605399, 
  "name": "FREDERICKSBURG, VIRGINIA USA", 
  "GollumEvent": 1
 }, 
 {
  "lat": 44.6484246, 
  "WatchEvent": 2, 
  "lng": -63.5749724, 
  "name": "HALIFAX, NS"
 }, 
 {
  "name": "POWAY, CA", 
  "PushEvent": 2, 
  "ForkEvent": 3, 
  "lat": 32.9628234, 
  "WatchEvent": 1, 
  "lng": -117.0358646, 
  "CreateEvent": 1
 }, 
 {
  "lat": 45.5344419, 
  "lng": 5.9515842, 
  "name": "ST BALDOPH, FRANCE", 
  "PushEvent": 8
 }, 
 {
  "name": "RIO DE JANEIRO; BRAZIL", 
  "PullRequestEvent": 2, 
  "IssueCommentEvent": 2, 
  "PushEvent": 6, 
  "lat": -22.2752762, 
  "lng": -42.419415, 
  "CreateEvent": 1
 }, 
 {
  "name": "LUZERN, SWITZERLAND", 
  "PullRequestEvent": 1, 
  "IssueCommentEvent": 1, 
  "PushEvent": 9, 
  "lat": 47.0505452, 
  "WatchEvent": 1, 
  "lng": 8.3054682, 
  "CreateEvent": 5
 }, 
 {
  "lat": 42.8343422, 
  "IssueCommentEvent": 1, 
  "lng": 13.927816, 
  "name": "ALBA ADRIATICA (TE)", 
  "PushEvent": 1
 }, 
 {
  "lat": null, 
  "lng": null, 
  "name": "BOSTON METROPOLITAN AREA", 
  "ForkEvent": 1
 }, 
 {
  "ForkEvent": 1, 
  "PullRequestEvent": 1, 
  "IssueCommentEvent": 1, 
  "PushEvent": 16, 
  "lat": 56.8391034, 
  "lng": 60.6082502, 
  "name": "RUSSIA, EKATERINBURG"
 }, 
 {
  "PullRequestReviewCommentEvent": 5, 
  "ForkEvent": 3, 
  "PullRequestEvent": 4, 
  "IssueCommentEvent": 3, 
  "PushEvent": 6, 
  "lat": -19.9227318, 
  "lng": -43.9450948, 
  "GollumEvent": 1, 
  "name": "BELO HORIZONTE, MINAS GERAIS, BRAZIL"
 }, 
 {
  "IssuesEvent": 2, 
  "ForkEvent": 2, 
  "PullRequestEvent": 4, 
  "IssueCommentEvent": 3, 
  "PushEvent": 10, 
  "DeleteEvent": 1, 
  "lat": 39.2846027, 
  "WatchEvent": 7, 
  "lng": -76.6204720586531, 
  "CreateEvent": 2, 
  "name": "BALTIMORE, MARYLAND"
 }, 
 {
  "lat": 57.1369473, 
  "lng": 65.5819746, 
  "CreateEvent": 1, 
  "name": "TYUMEN / RUSSIA", 
  "PushEvent": 6
 }, 
 {
  "ForkEvent": 1, 
  "PushEvent": 1, 
  "lat": -33.4266395, 
  "WatchEvent": 5, 
  "lng": 151.4179812, 
  "name": "CENTRAL COAST, NSW AUSTRALIA"
 }, 
 {
  "lat": null, 
  "lng": null, 
  "name": "HTTP://BLAKEMIZERANY.COM", 
  "IssueCommentEvent": 2
 }, 
 {
  "lat": 33.4709714, 
  "WatchEvent": 1, 
  "lng": -81.9748429, 
  "name": "AUGUSTA, GA"
 }, 
 {
  "PullRequestEvent": 1, 
  "lat": null, 
  "lng": null, 
  "name": "WILLAMETTE VALLEY, OREGON, US", 
  "PushEvent": 3
 }, 
 {
  "lat": 39.2225376, 
  "lng": 9.1169358, 
  "IssuesEvent": 2, 
  "name": "CAGLIARI", 
  "IssueCommentEvent": 8
 }, 
 {
  "name": "MENLO PARK, CA, USA", 
  "PullRequestEvent": 1, 
  "IssueCommentEvent": 1, 
  "PushEvent": 3, 
  "lat": 37.4538274, 
  "WatchEvent": 2, 
  "lng": -122.1821871, 
  "CreateEvent": 3
 }, 
 {
  "name": "PHOENIX", 
  "lat": 33.361168, 
  "WatchEvent": 2, 
  "lng": -112.121302167105, 
  "IssuesEvent": 1, 
  "ForkEvent": 2
 }, 
 {
  "lat": 58.5909128, 
  "WatchEvent": 3, 
  "lng": 16.190348, 
  "name": "NORRK\u00f6PING, SWEDEN"
 }, 
 {
  "lat": 33.6671869, 
  "WatchEvent": 12, 
  "lng": -117.720593399723, 
  "name": "ORANGE COUNTY, CALIFORNIA, USA"
 }, 
 {
  "lat": -7.221958, 
  "lng": -35.873144, 
  "ForkEvent": 1, 
  "name": "CAMPINA GRANDE, PARA\u00edBA - BRAZIL", 
  "PushEvent": 1
 }, 
 {
  "PublicEvent": 1, 
  "name": "SAN ANTONIO", 
  "GollumEvent": 1, 
  "PullRequestEvent": 12, 
  "IssueCommentEvent": 10, 
  "PushEvent": 55, 
  "DeleteEvent": 1, 
  "CommitCommentEvent": 3, 
  "ForkEvent": 2, 
  "lat": 29.4246002, 
  "WatchEvent": 3, 
  "lng": -98.4951405, 
  "IssuesEvent": 5, 
  "CreateEvent": 6
 }, 
 {
  "lat": 18.4024395, 
  "lng": -64.5661642, 
  "IssuesEvent": 3, 
  "name": "US VIRGIN ISLANDS", 
  "IssueCommentEvent": 1
 }, 
 {
  "ForkEvent": 1, 
  "PushEvent": 6, 
  "name": "ODENTON, MD", 
  "lat": 39.0837774, 
  "WatchEvent": 3, 
  "lng": -76.7000224, 
  "GollumEvent": 2
 }, 
 {
  "lat": null, 
  "lng": null, 
  "name": "AUGBSURG, GERMANY", 
  "ForkEvent": 1
 }, 
 {
  "lat": -25.5411963, 
  "lng": -48.3022401, 
  "name": "BRASILIA - DF, BRASIL", 
  "PushEvent": 1
 }, 
 {
  "lat": 35.0185804, 
  "lng": 135.763835, 
  "CreateEvent": 2, 
  "name": "KYOTO, JAPAN.", 
  "PushEvent": 5
 }, 
 {
  "lat": 42.4792618, 
  "WatchEvent": 1, 
  "lng": -71.1522766, 
  "name": "WOBURN MA", 
  "PushEvent": 38
 }, 
 {
  "name": "DIEBURG, GERMANY", 
  "PullRequestEvent": 4, 
  "IssueCommentEvent": 15, 
  "PushEvent": 22, 
  "lat": 49.8949312, 
  "lng": 8.8368946, 
  "IssuesEvent": 6, 
  "CreateEvent": 1
 }, 
 {
  "ForkEvent": 1, 
  "PullRequestEvent": 1, 
  "PushEvent": 1, 
  "IssueCommentEvent": 2, 
  "lat": 35.5843235, 
  "lng": -78.8000128, 
  "name": "FUQUAY VARINA, NC"
 }, 
 {
  "lat": 38.9695316, 
  "lng": -77.3859479, 
  "name": "HERNDON, VA, USA", 
  "ForkEvent": 1
 }, 
 {
  "lat": 41.8245424, 
  "lng": -72.8937122, 
  "name": "CANTON, CT", 
  "ForkEvent": 3
 }, 
 {
  "MemberEvent": 1, 
  "PublicEvent": 1, 
  "name": "GOTHENBURG, SWEDEN", 
  "GollumEvent": 11, 
  "PullRequestEvent": 18, 
  "IssueCommentEvent": 270, 
  "PushEvent": 339, 
  "DeleteEvent": 7, 
  "CommitCommentEvent": 25, 
  "ForkEvent": 6, 
  "lat": 57.7072326, 
  "WatchEvent": 8, 
  "lng": 11.9670171, 
  "IssuesEvent": 153, 
  "CreateEvent": 70
 }, 
 {
  "ForkEvent": 8, 
  "PullRequestEvent": 1, 
  "PushEvent": 11, 
  "name": "BOSTON AREA", 
  "lat": 14.5876182, 
  "lng": 120.9681762, 
  "CreateEvent": 4
 }, 
 {
  "MemberEvent": 1, 
  "name": "RECIFE-PE, BRAZIL", 
  "IssueCommentEvent": 1, 
  "PushEvent": 17, 
  "lat": -8.0581077, 
  "lng": -34.8979047
 }, 
 {
  "ForkEvent": 9, 
  "PullRequestEvent": 2, 
  "IssueCommentEvent": 4, 
  "PushEvent": 11, 
  "lat": 35.223234, 
  "WatchEvent": 4, 
  "lng": -118.953616630358, 
  "CreateEvent": 1, 
  "name": "BAKERSFIELD, CA"
 }, 
 {
  "lat": 37.5726028, 
  "lng": -85.1551411, 
  "name": "KENTUCKY, US", 
  "IssueCommentEvent": 2
 }, 
 {
  "lat": 45.4563052, 
  "lng": -75.7228828, 
  "name": "GATINEAU, QUEBEC", 
  "ForkEvent": 1
 }, 
 {
  "ForkEvent": 3, 
  "PullRequestEvent": 1, 
  "PushEvent": 12, 
  "name": "\u0130STANBUL", 
  "lat": 41.0170578, 
  "WatchEvent": 7, 
  "lng": 28.9855676, 
  "GollumEvent": 1, 
  "CreateEvent": 2
 }, 
 {
  "lat": -25.4286927, 
  "lng": -49.272373, 
  "name": "CURITIBA - PR", 
  "CreateEvent": 1
 }, 
 {
  "lat": null, 
  "lng": null, 
  "name": "DC SUBURBS", 
  "PushEvent": 1
 }, 
 {
  "PushEvent": 33, 
  "ForkEvent": 1, 
  "IssueCommentEvent": 1, 
  "name": "GROENLO, THE NETHERLANDS", 
  "lat": 52.0407537, 
  "lng": 6.6116325, 
  "CreateEvent": 16
 }, 
 {
  "ForkEvent": 1, 
  "PullRequestEvent": 2, 
  "IssueCommentEvent": 1, 
  "PushEvent": 8, 
  "lat": 39.4850226, 
  "WatchEvent": 5, 
  "lng": -97.6705137, 
  "CreateEvent": 1, 
  "name": "CLOUD"
 }, 
 {
  "ForkEvent": 1, 
  "PullRequestEvent": 3, 
  "IssueCommentEvent": 1, 
  "PushEvent": 7, 
  "lat": 28.6208333, 
  "lng": -111.6251667, 
  "IssuesEvent": 1, 
  "name": "MEXICO DF, MEXICO"
 }, 
 {
  "lat": 51.5072759, 
  "lng": -0.1276597, 
  "PushEvent": 1, 
  "name": "LONDON - UK", 
  "CreateEvent": 1
 }, 
 {
  "lat": null, 
  "lng": null, 
  "ForkEvent": 1, 
  "name": "@EDEBILL", 
  "PushEvent": 1
 }, 
 {
  "lat": 32.8601325, 
  "WatchEvent": 1, 
  "lng": -97.2120548962232, 
  "name": "NORTH RICHLAND HILLS, TX"
 }, 
 {
  "lat": 53.50652435, 
  "WatchEvent": 1, 
  "lng": -2.33744027914629, 
  "name": "GREATER LA", 
  "IssueCommentEvent": 2
 }, 
 {
  "lat": 34.986177, 
  "lng": -78.954569, 
  "name": "AUSTRALIA AND SCOTLAND", 
  "PushEvent": 1
 }, 
 {
  "ForkEvent": 1, 
  "PullRequestEvent": 1, 
  "IssueCommentEvent": 4, 
  "PushEvent": 18, 
  "lat": 33.7491033, 
  "lng": -84.3786897, 
  "IssuesEvent": 10, 
  "name": "METRO-ATLANTA, GA"
 }, 
 {
  "name": "SAO PAULO - BRAZIL", 
  "PullRequestEvent": 10, 
  "IssueCommentEvent": 9, 
  "PushEvent": 20, 
  "lat": -21.9549806, 
  "WatchEvent": 3, 
  "lng": -49.0232348, 
  "IssuesEvent": 1
 }, 
 {
  "PushEvent": 8, 
  "ForkEvent": 3, 
  "PullRequestEvent": 3, 
  "IssueCommentEvent": 3, 
  "name": "LEICESTER, UK", 
  "lat": 52.6367811, 
  "WatchEvent": 1, 
  "lng": -1.1312289, 
  "IssuesEvent": 2, 
  "CreateEvent": 6
 }, 
 {
  "name": "HILLSBOROUGH, NC", 
  "PullRequestEvent": 1, 
  "PushEvent": 1, 
  "CommitCommentEvent": 2, 
  "lat": 36.0754183, 
  "lng": -79.0997348
 }, 
 {
  "lat": 40.4776044, 
  "WatchEvent": 1, 
  "lng": -74.6268245, 
  "name": "HILLSBOROUGH, NJ", 
  "PushEvent": 1
 }, 
 {
  "name": "BUSAN KOREA", 
  "IssueCommentEvent": 9, 
  "lat": 35.1853168, 
  "WatchEvent": 3, 
  "lng": 129.0625899, 
  "IssuesEvent": 2
 }, 
 {
  "lat": 38.6272733, 
  "lng": -90.1978889, 
  "name": "ST.LOUIS, MO", 
  "PushEvent": 1
 }, 
 {
  "lat": 32.03805805, 
  "WatchEvent": 1, 
  "lng": 118.84742796689, 
  "name": "CHINA NAN JING"
 }, 
 {
  "PushEvent": 16, 
  "DownloadEvent": 9, 
  "IssueCommentEvent": 3, 
  "name": "SAN FRANCISCO, UNITED STATES", 
  "lat": 37.7789601, 
  "lng": -122.419199, 
  "IssuesEvent": 1, 
  "CreateEvent": 4
 }, 
 {
  "lat": null, 
  "WatchEvent": 1, 
  "lng": null, 
  "name": "HTTP://WWW.GRAVATAR.COM/AVATAR/302BA0FF518AA2F79FA76F8516450CE0.PNG"
 }, 
 {
  "lat": 60.209545, 
  "lng": 24.964343, 
  "ForkEvent": 2, 
  "name": "KUMPULA, HELSINKI", 
  "PushEvent": 2
 }, 
 {
  "ForkEvent": 1, 
  "PullRequestEvent": 2, 
  "PushEvent": 3, 
  "name": "WATERLOO, ON, CANADA", 
  "lat": 43.4655524, 
  "lng": -80.5217786, 
  "IssuesEvent": 1, 
  "GollumEvent": 2
 }, 
 {
  "lat": -5.0896403, 
  "WatchEvent": 2, 
  "lng": -42.809588, 
  "name": "TERESINA, BRASIL"
 }, 
 {
  "lat": null, 
  "lng": null, 
  "name": "AN UNKNOWN LOCATION IN THE KNOWN UNIVERSE", 
  "CreateEvent": 1
 }, 
 {
  "lat": 36.5216471, 
  "lng": -6.2826008, 
  "name": "C\u00e1DIZ, SPAIN", 
  "PushEvent": 2
 }, 
 {
  "name": "KALAMAZOO, MI", 
  "PullRequestEvent": 1, 
  "IssueCommentEvent": 21, 
  "PushEvent": 26, 
  "ForkEvent": 1, 
  "lat": 42.291707, 
  "WatchEvent": 2, 
  "CommitCommentEvent": 1, 
  "IssuesEvent": 6, 
  "lng": -85.5872286, 
  "CreateEvent": 3
 }, 
 {
  "lat": 36.107356, 
  "IssueCommentEvent": 3, 
  "lng": -80.2529750912614, 
  "name": "WINSTON-SALEM, NC", 
  "PushEvent": 4
 }, 
 {
  "ForkEvent": 16, 
  "GollumEvent": 1, 
  "PullRequestEvent": 9, 
  "IssueCommentEvent": 8, 
  "PushEvent": 160, 
  "name": "HANGZHOU, CHINA", 
  "lat": 30.2665643, 
  "WatchEvent": 133, 
  "lng": 120.149335, 
  "IssuesEvent": 5, 
  "CreateEvent": 11
 }, 
 {
  "lat": 38.4153421, 
  "WatchEvent": 1, 
  "lng": 27.144474, 
  "name": "IZMIR, TURKEY"
 }, 
 {
  "name": "FORTALEZA, CE, BRAZIL", 
  "DeleteEvent": 1, 
  "PushEvent": 6, 
  "lat": -3.7304512, 
  "lng": -38.5217989, 
  "CreateEvent": 2
 }, 
 {
  "lat": 42.291707, 
  "lng": -85.5872286, 
  "CreateEvent": 1, 
  "name": "KALAMAZOO, MICHIGAN", 
  "PushEvent": 11
 }, 
 {
  "name": "SHERBROOKE, QC, CANADA", 
  "PullRequestEvent": 4, 
  "IssueCommentEvent": 1, 
  "PushEvent": 2, 
  "lat": 45.4029964, 
  "lng": -71.887681, 
  "CreateEvent": 5
 }, 
 {
  "lat": 35.466872, 
  "lng": 139.622747, 
  "CreateEvent": 1, 
  "name": "\u6a2a\u6d5c", 
  "PushEvent": 1
 }, 
 {
  "PushEvent": 16, 
  "ForkEvent": 1, 
  "IssueCommentEvent": 1, 
  "name": "CHAPEL HILL, NC USA", 
  "lat": 35.9131996, 
  "lng": -79.0558445, 
  "IssuesEvent": 6, 
  "CreateEvent": 2
 }, 
 {
  "name": "MALDEN, MA, USA", 
  "PullRequestEvent": 1, 
  "PushEvent": 4, 
  "IssueCommentEvent": 16, 
  "lat": 42.4250964, 
  "lng": -71.066163, 
  "CreateEvent": 2
 }, 
 {
  "ForkEvent": 3, 
  "PullRequestEvent": 1, 
  "PushEvent": 4, 
  "IssueCommentEvent": 88, 
  "CommitCommentEvent": 1, 
  "lat": 41.7370229, 
  "WatchEvent": 1, 
  "lng": -99.5873816, 
  "IssuesEvent": 2, 
  "name": "NE, USA"
 }, 
 {
  "name": "DUNEDIN, NEW ZEALAND", 
  "IssueCommentEvent": 1, 
  "lat": -45.8739282, 
  "WatchEvent": 18, 
  "lng": 170.503488, 
  "IssuesEvent": 1
 }, 
 {
  "PushEvent": 12, 
  "ForkEvent": 1, 
  "IssueCommentEvent": 1, 
  "name": "GIBRALTAR", 
  "lat": 36.1406224, 
  "WatchEvent": 6, 
  "lng": -5.3486241, 
  "CreateEvent": 1
 }, 
 {
  "MemberEvent": 2, 
  "PushEvent": 72, 
  "ForkEvent": 15, 
  "GollumEvent": 1, 
  "PullRequestEvent": 12, 
  "IssueCommentEvent": 39, 
  "name": "JACKSONVILLE BEACH, FL", 
  "DeleteEvent": 1, 
  "CommitCommentEvent": 1, 
  "lat": 30.2799735, 
  "WatchEvent": 14, 
  "lng": -81.3732098801142, 
  "IssuesEvent": 9, 
  "CreateEvent": 16
 }, 
 {
  "lat": 43.7698712, 
  "WatchEvent": 22, 
  "lng": 11.2555757, 
  "name": "FLORENCE"
 }, 
 {
  "lat": 49.3389775, 
  "lng": 17.9961534, 
  "name": "VSET\u00edN", 
  "IssueCommentEvent": 1
 }, 
 {
  "name": "CT, USA", 
  "IssueCommentEvent": 1, 
  "PushEvent": 9, 
  "lat": 41.493929, 
  "lng": -72.5982114, 
  "GollumEvent": 25, 
  "CreateEvent": 3
 }, 
 {
  "ForkEvent": 1, 
  "PushEvent": 1, 
  "IssueCommentEvent": 1, 
  "lat": 52.1303794, 
  "lng": -106.6605124, 
  "name": "SASKATOON, SK, CANADA"
 }, 
 {
  "name": "MYSORE", 
  "IssueCommentEvent": 1, 
  "PushEvent": 1, 
  "lat": 12.0, 
  "lng": 76.5, 
  "IssuesEvent": 2, 
  "CreateEvent": 1
 }, 
 {
  "lat": 31.8160381, 
  "WatchEvent": 2, 
  "lng": -99.5120986, 
  "name": "TEXAS, US"
 }, 
 {
  "lat": 42.28164935, 
  "WatchEvent": 1, 
  "lng": -2.48279644646818, 
  "name": "LA RIOJA - SPAIN", 
  "ForkEvent": 1
 }, 
 {
  "lat": 36.1949274, 
  "lng": -86.7417714, 
  "name": "NASHVILLE, TENNESSEE", 
  "ForkEvent": 1
 }, 
 {
  "lat": 40.6096698, 
  "lng": -111.9391031, 
  "CreateEvent": 2, 
  "name": "WEST JORDAN, UT", 
  "PushEvent": 2
 }, 
 {
  "PushEvent": 40, 
  "ForkEvent": 5, 
  "PullRequestEvent": 2, 
  "IssueCommentEvent": 3, 
  "name": "TOKYO, JP", 
  "DeleteEvent": 1, 
  "lat": 35.6800712, 
  "WatchEvent": 3, 
  "lng": 139.7685224, 
  "IssuesEvent": 2, 
  "CreateEvent": 19
 }, 
 {
  "name": "CHESHIRE, UNITED KINGDOM", 
  "IssueCommentEvent": 2, 
  "PushEvent": 1, 
  "lat": 53.166667, 
  "WatchEvent": 3, 
  "lng": -2.583333, 
  "ForkEvent": 2
 }, 
 {
  "lat": 43.6529206, 
  "WatchEvent": 2, 
  "lng": -79.3849008, 
  "name": "TORONTO!"
 }, 
 {
  "lat": null, 
  "WatchEvent": 4, 
  "lng": null, 
  "name": "GREATER SEATTLE AREA"
 }, 
 {
  "ForkEvent": 4, 
  "PullRequestEvent": 1, 
  "IssueCommentEvent": 1, 
  "PushEvent": 87, 
  "name": "CANBERRA, AUSTRALIA", 
  "CommitCommentEvent": 1, 
  "lat": -35.2820709, 
  "WatchEvent": 9, 
  "lng": 149.1286673, 
  "IssuesEvent": 1, 
  "CreateEvent": 10
 }, 
 {
  "lat": 51.134377, 
  "lng": 4.4456359, 
  "PushEvent": 1, 
  "name": "KONTICH (BELGIUM)", 
  "CreateEvent": 1
 }, 
 {
  "lat": 32.0443395, 
  "lng": 34.7509908, 
  "CreateEvent": 1, 
  "name": "JAFFA, ISRAEL", 
  "PushEvent": 5
 }, 
 {
  "lat": 41.4739419, 
  "lng": -81.5370671, 
  "CreateEvent": 3, 
  "name": "SHAKER HEIGHTS, OH", 
  "PushEvent": 16
 }, 
 {
  "lat": null, 
  "lng": null, 
  "name": "LAUSANNE SWITZERLAND / CHAMB\u00e9RY FRANCE", 
  "ForkEvent": 1
 }, 
 {
  "lat": 52.6773376, 
  "lng": 4.80070290744506, 
  "name": "BROEK OP LANGEDIJK", 
  "ForkEvent": 1
 }, 
 {
  "name": "DELHI, INDIA", 
  "PullRequestEvent": 1, 
  "IssueCommentEvent": 1, 
  "PushEvent": 1, 
  "ForkEvent": 1, 
  "lat": 28.63135, 
  "WatchEvent": 6, 
  "lng": 77.2494606, 
  "CreateEvent": 1
 }, 
 {
  "lat": null, 
  "WatchEvent": 1, 
  "lng": null, 
  "name": "TBILISI GERGIA"
 }, 
 {
  "lat": 39.897047, 
  "lng": -76.1635655, 
  "name": "QUARRYVILLE, PA", 
  "PushEvent": 3
 }, 
 {
  "lat": null, 
  "lng": null, 
  "ForkEvent": 1, 
  "name": "AHOKA@RIZON", 
  "PushEvent": 5
 }, 
 {
  "name": "CHINPEN.NET", 
  "PullRequestEvent": 1, 
  "ForkEvent": 1, 
  "lat": null, 
  "WatchEvent": 1, 
  "lng": null, 
  "CreateEvent": 1
 }, 
 {
  "name": "SALEM, MA", 
  "PullRequestEvent": 1, 
  "PushEvent": 3, 
  "lat": 42.5195292, 
  "lng": -70.8967226, 
  "IssuesEvent": 1
 }, 
 {
  "lat": 35.9754168, 
  "lng": 139.4160114, 
  "PushEvent": 3, 
  "name": "\u57fc\u7389\u770c", 
  "CreateEvent": 3
 }, 
 {
  "name": "MIDDLE RIVER MARYLAND", 
  "PushEvent": 2, 
  "lat": 39.3342745, 
  "lng": -76.4394057, 
  "IssuesEvent": 1, 
  "ForkEvent": 3
 }, 
 {
  "PullRequestReviewCommentEvent": 2, 
  "ForkEvent": 6, 
  "PullRequestEvent": 9, 
  "IssueCommentEvent": 5, 
  "PushEvent": 41, 
  "name": "BOCHUM, GERMANY", 
  "CommitCommentEvent": 3, 
  "lat": 51.4833001, 
  "WatchEvent": 18, 
  "lng": 7.2166699, 
  "CreateEvent": 7
 }, 
 {
  "ForkEvent": 3, 
  "CreateEvent": 1, 
  "PullRequestEvent": 1, 
  "PushEvent": 8, 
  "IssueCommentEvent": 1, 
  "lat": 53.2190692, 
  "WatchEvent": 1, 
  "lng": 6.5680421, 
  "IssuesEvent": 1, 
  "name": "GRONINGEN"
 }, 
 {
  "lat": 30.7204507, 
  "WatchEvent": 2, 
  "lng": 76.7669704, 
  "name": "CHANDIGARH"
 }, 
 {
  "name": "OXFORD, ENGLAND", 
  "IssueCommentEvent": 1, 
  "PushEvent": 3, 
  "lat": 51.7521553, 
  "WatchEvent": 4, 
  "lng": -1.2582135
 }, 
 {
  "lat": null, 
  "lng": null, 
  "IssuesEvent": 1, 
  "name": "PRISHINA, KOSOVO"
 }, 
 {
  "lat": 47.3685586, 
  "lng": 8.5404434, 
  "name": "ZUERICH", 
  "ForkEvent": 1
 }, 
 {
  "lat": 31.9382652, 
  "lng": -81.3034433, 
  "name": "RICHMOND HILL, GA", 
  "ForkEvent": 1
 }, 
 {
  "name": "REYKJAVIK, ICELAND", 
  "IssueCommentEvent": 1, 
  "PushEvent": 2, 
  "lat": 64.24439715, 
  "WatchEvent": 1, 
  "lng": -21.768262199674
 }, 
 {
  "lat": null, 
  "lng": null, 
  "CreateEvent": 2, 
  "name": "HAMAMATSU , SHIZUOKA", 
  "PushEvent": 3
 }, 
 {
  "name": "CHARLOTTE", 
  "PullRequestEvent": 2, 
  "PushEvent": 3, 
  "ForkEvent": 4, 
  "lat": 35.3314525, 
  "WatchEvent": 5, 
  "lng": -80.9398554230769, 
  "CreateEvent": 2
 }, 
 {
  "ForkEvent": 1, 
  "IssueCommentEvent": 2, 
  "name": "LAKE TAHOE, CA USA", 
  "lat": 39.09273245, 
  "lng": -120.051665429519, 
  "CreateEvent": 1
 }, 
 {
  "ForkEvent": 1, 
  "PushEvent": 8, 
  "lat": 52.3996888, 
  "WatchEvent": 7, 
  "lng": 16.9213977735236, 
  "name": "POZNA\u0144, PL"
 }, 
 {
  "lat": -33.8548157, 
  "lng": 151.2164539, 
  "name": "SYDNEY, AU", 
  "ForkEvent": 1
 }, 
 {
  "lat": 40.5246711, 
  "lng": -111.8638226, 
  "name": "DRAPER, UTAH USA", 
  "PushEvent": 2
 }, 
 {
  "ForkEvent": 1, 
  "PullRequestEvent": 1, 
  "IssueCommentEvent": 1, 
  "PushEvent": 2, 
  "lat": 35.6009498, 
  "lng": -82.5540161, 
  "name": "ASHEVILLE, NORTH CAROLINA"
 }, 
 {
  "ForkEvent": 1, 
  "PushEvent": 1, 
  "IssueCommentEvent": 1, 
  "CommitCommentEvent": 1, 
  "lat": 46.8052805, 
  "WatchEvent": 10, 
  "lng": 7.1606881, 
  "IssuesEvent": 1, 
  "name": "FRIBOURG, SWITZERLAND"
 }, 
 {
  "lat": 54.5706054, 
  "WatchEvent": 1, 
  "lng": 18.3962802, 
  "name": "RUMIA, POLAND", 
  "ForkEvent": 2
 }, 
 {
  "PullRequestEvent": 1, 
  "lat": 40.2338438, 
  "lng": -111.6585337, 
  "name": "PROVO, UTAH, USA", 
  "PushEvent": 3
 }, 
 {
  "lat": 41.3870186, 
  "WatchEvent": 2, 
  "lng": 2.1700437, 
  "name": "BARCELONA, CATALUNYA, SPAIN"
 }, 
 {
  "name": "BCN", 
  "PushEvent": 9, 
  "lat": 30.0338923, 
  "WatchEvent": 7, 
  "lng": -115.1425107, 
  "CreateEvent": 5
 }, 
 {
  "lat": 32.0609158, 
  "WatchEvent": 1, 
  "lng": 118.7916065, 
  "name": "NANJING,CN"
 }, 
 {
  "lat": 53.1984756, 
  "lng": 50.1142415, 
  "CreateEvent": 1, 
  "name": "SAMARA", 
  "PushEvent": 3
 }, 
 {
  "name": "LAUNCESTON, AUSTRALIA", 
  "DeleteEvent": 1, 
  "PushEvent": 48, 
  "lat": -41.4340813, 
  "WatchEvent": 2, 
  "lng": 147.1373496, 
  "CreateEvent": 6
 }, 
 {
  "lat": 32.8590639, 
  "lng": -79.9120302, 
  "CreateEvent": 2, 
  "name": "DANIEL ISLAND, SC", 
  "PushEvent": 12
 }, 
 {
  "lat": 52.5906621, 
  "lng": -0.263162871001759, 
  "name": "PETERBOROUGH, UK", 
  "PushEvent": 7
 }, 
 {
  "lat": 56.0082556, 
  "WatchEvent": 1, 
  "lng": 92.8702365, 
  "name": "RUSSIA/KRASNOYARSK"
 }, 
 {
  "lat": 38.367814, 
  "WatchEvent": 1, 
  "lng": -122.76598019449, 
  "name": "SANTA ROSA, CA, USA"
 }, 
 {
  "name": "BURBANK, CA", 
  "PullRequestEvent": 15, 
  "IssueCommentEvent": 17, 
  "PushEvent": 55, 
  "DeleteEvent": 2, 
  "CommitCommentEvent": 2, 
  "ForkEvent": 1, 
  "lat": 34.1820105, 
  "lng": -118.325888360099, 
  "IssuesEvent": 1, 
  "CreateEvent": 1
 }, 
 {
  "MemberEvent": 1, 
  "name": "VENDA NOVA DO IMIGRANTE/ES - CAMPOS DOS GOYTACAZES/RJ", 
  "PullRequestEvent": 1, 
  "IssueCommentEvent": 8, 
  "PushEvent": 29, 
  "CommitCommentEvent": 7, 
  "ForkEvent": 2, 
  "lat": null, 
  "WatchEvent": 2, 
  "lng": null, 
  "IssuesEvent": 5, 
  "CreateEvent": 13
 }, 
 {
  "name": "SWIZERLAND", 
  "PushEvent": 14, 
  "lat": 38.7418396, 
  "WatchEvent": 1, 
  "lng": -85.0777211123463, 
  "CreateEvent": 1
 }, 
 {
  "name": "TORQUAY, UK", 
  "IssueCommentEvent": 4, 
  "PushEvent": 18, 
  "lat": 50.4652392, 
  "lng": -3.5211361, 
  "IssuesEvent": 5, 
  "CreateEvent": 11
 }, 
 {
  "lat": -13.2687204, 
  "lng": 33.9301963, 
  "name": "MALAWI", 
  "PushEvent": 30
 }, 
 {
  "name": "S\u00e3O PAULO / BRAZIL", 
  "PullRequestEvent": 1, 
  "IssueCommentEvent": 1, 
  "PushEvent": 1, 
  "lat": -21.9549806, 
  "WatchEvent": 2, 
  "lng": -49.0232348, 
  "CreateEvent": 1
 }, 
 {
  "lat": 31.3271189, 
  "WatchEvent": 1, 
  "lng": -89.2903392, 
  "name": "HATTIESBURG, MISSISSIPPI"
 }, 
 {
  "lat": -8.5068972, 
  "lng": 115.2629899, 
  "name": "UBUD, INDONESIA", 
  "CreateEvent": 1
 }, 
 {
  "lat": 40.506215, 
  "WatchEvent": 1, 
  "lng": -74.6201578, 
  "name": "HAMILTON, NEW JERSEY"
 }, 
 {
  "MemberEvent": 2, 
  "name": "/HOME/ASKN", 
  "PullRequestEvent": 2, 
  "PushEvent": 40, 
  "DeleteEvent": 1, 
  "ForkEvent": 1, 
  "lat": null, 
  "WatchEvent": 1, 
  "lng": null, 
  "GollumEvent": 1, 
  "CreateEvent": 10
 }, 
 {
  "lat": 41.538173, 
  "lng": 2.4488629, 
  "name": "MATAR\u00f3, BARCELONA, SPAIN", 
  "ForkEvent": 1
 }, 
 {
  "name": "LOWELL, MA", 
  "PullRequestEvent": 1, 
  "PushEvent": 6, 
  "lat": 42.6334247, 
  "WatchEvent": 1, 
  "lng": -71.3161718
 }, 
 {
  "lat": 52.95385025, 
  "WatchEvent": 1, 
  "lng": -1.1698803748747, 
  "name": "NOTTINGHAM, ENGLAND"
 }, 
 {
  "name": "CHICAGOLAND+WI", 
  "PullRequestEvent": 1, 
  "PushEvent": 1, 
  "lat": null, 
  "lng": null, 
  "ForkEvent": 2
 }, 
 {
  "lat": 34.5400242, 
  "WatchEvent": 1, 
  "lng": -112.4685025, 
  "name": "PRESCOTT, AZ"
 }, 
 {
  "ForkEvent": 5, 
  "PullRequestEvent": 5, 
  "IssueCommentEvent": 6, 
  "PushEvent": 19, 
  "lat": 30.3321838, 
  "lng": -81.655651, 
  "IssuesEvent": 1, 
  "name": "JACKSONVILLE, US"
 }, 
 {
  "ForkEvent": 1, 
  "PullRequestEvent": 1, 
  "PushEvent": 2, 
  "IssueCommentEvent": 6, 
  "lat": -12.8104186, 
  "lng": 28.2068361, 
  "IssuesEvent": 1, 
  "name": "KITWE, ZAMBIA"
 }, 
 {
  "lat": 11.57944155, 
  "WatchEvent": 2, 
  "lng": 104.838559046362, 
  "name": "PHNOM PENH"
 }, 
 {
  "IssuesEvent": 1, 
  "PushEvent": 74, 
  "ForkEvent": 11, 
  "PullRequestEvent": 4, 
  "IssueCommentEvent": 6, 
  "name": "VILNIUS, LITHUANIA", 
  "DeleteEvent": 2, 
  "lat": 54.6843135, 
  "WatchEvent": 32, 
  "lng": 25.2853984, 
  "GollumEvent": 1, 
  "CreateEvent": 15
 }, 
 {
  "lat": 42.6073975, 
  "WatchEvent": 2, 
  "lng": 25.4856617, 
  "name": "DIEBURG"
 }, 
 {
  "lat": -25.4286927, 
  "lng": -49.272373, 
  "name": "CURITIBA, PARANA, BRAZIL", 
  "ForkEvent": 1
 }, 
 {
  "lat": 45.6306954, 
  "lng": -122.6744557, 
  "name": "VANCOUVER, WASHINGTON, USA", 
  "IssueCommentEvent": 1
 }, 
 {
  "lat": null, 
  "WatchEvent": 1, 
  "lng": null, 
  "name": "BASEL, SWITZERLAND / SIEGBURG,GERMANY"
 }, 
 {
  "lat": null, 
  "WatchEvent": 6, 
  "lng": null, 
  "name": "TSU MIE JAPAN"
 }, 
 {
  "lat": 40.9830201, 
  "WatchEvent": 1, 
  "lng": 24.6990858, 
  "name": "CYPRUS, GREECE"
 }, 
 {
  "lat": null, 
  "WatchEvent": 1, 
  "lng": null, 
  "name": "BEACON, NY, USA, EARTH, SOL, MILKY WAY", 
  "ForkEvent": 5
 }, 
 {
  "lat": 51.166294, 
  "lng": 4.1419484, 
  "name": "SINT-NIKLAAS, BELGIUM", 
  "ForkEvent": 1
 }, 
 {
  "lat": 40.7305991, 
  "WatchEvent": 1, 
  "lng": -73.9865812, 
  "name": "NYC/NEW JERSEY"
 }, 
 {
  "lat": 35.69121105, 
  "WatchEvent": 1, 
  "lng": 140.020455012759, 
  "name": "TSUDANUMA"
 }, 
 {
  "lat": 38.6272733, 
  "lng": -90.1978889, 
  "PullRequestReviewCommentEvent": 2, 
  "name": "ST. LOUIS, MO, US"
 }, 
 {
  "lat": 59.8108365, 
  "WatchEvent": 2, 
  "lng": 30.4409952109279, 
  "name": "RUSSIA, ST. PETERSBURG"
 }, 
 {
  "ForkEvent": 1, 
  "IssueCommentEvent": 3, 
  "CommitCommentEvent": 1, 
  "lat": null, 
  "WatchEvent": 1, 
  "lng": null, 
  "name": "BUDAPEST, HUNGARY, EUROPE"
 }, 
 {
  "ForkEvent": 8, 
  "PullRequestEvent": 1, 
  "IssueCommentEvent": 13, 
  "PushEvent": 10, 
  "name": "COLIMA, MEXICO", 
  "lat": 19.166667, 
  "WatchEvent": 18, 
  "lng": -104.0, 
  "IssuesEvent": 3, 
  "CreateEvent": 5
 }, 
 {
  "lat": 38.92880455, 
  "lng": -119.987831498967, 
  "name": "SOUTH LAKE TAHOE, CA", 
  "PushEvent": 1
 }, 
 {
  "lat": 39.9272459, 
  "WatchEvent": 1, 
  "lng": 32.8520044, 
  "name": "ANKARA, TR"
 }, 
 {
  "ForkEvent": 1, 
  "PushEvent": 12, 
  "name": "COATS, NC", 
  "lat": 35.4079393, 
  "lng": -78.6719592, 
  "CreateEvent": 1
 }, 
 {
  "ForkEvent": 2, 
  "PushEvent": 7, 
  "name": "GERMANY - AUGSBURG", 
  "lat": 48.3556629, 
  "lng": 10.9258023, 
  "IssuesEvent": 1, 
  "CreateEvent": 2
 }, 
 {
  "lat": 35.7730076, 
  "WatchEvent": 11, 
  "lng": -86.2820081, 
  "name": "TENNESSEE", 
  "ForkEvent": 1
 }, 
 {
  "lat": 48.4183405, 
  "lng": -123.3821625, 
  "name": "MONTREAL & VANCOUVER", 
  "ForkEvent": 1
 }, 
 {
  "lat": -7.1178011, 
  "WatchEvent": 1, 
  "lng": -34.8321878, 
  "name": "JOAO PESSOA - PB", 
  "PushEvent": 3
 }, 
 {
  "name": "IRVINE,CA", 
  "CreateEvent": 1, 
  "PullRequestEvent": 2, 
  "PushEvent": 5, 
  "IssueCommentEvent": 5, 
  "lat": 33.6862707, 
  "WatchEvent": 9, 
  "lng": -117.8258199, 
  "IssuesEvent": 2, 
  "ForkEvent": 1
 }, 
 {
  "lat": 42.3450219, 
  "WatchEvent": 1, 
  "lng": -88.067858, 
  "name": "HAINESVILLE, IL", 
  "PushEvent": 1
 }, 
 {
  "name": "QINGDAO", 
  "PushEvent": 33, 
  "lat": 36.0895093, 
  "WatchEvent": 5, 
  "lng": 120.3497193, 
  "CreateEvent": 2
 }, 
 {
  "PublicEvent": 1, 
  "name": "QUEBEC CITY, QC, CANADA", 
  "GollumEvent": 1, 
  "PullRequestEvent": 9, 
  "IssueCommentEvent": 26, 
  "PushEvent": 84, 
  "ForkEvent": 3, 
  "lat": null, 
  "WatchEvent": 2, 
  "CommitCommentEvent": 1, 
  "IssuesEvent": 7, 
  "lng": null, 
  "CreateEvent": 21
 }, 
 {
  "lat": 58.9680427, 
  "lng": 5.7324722, 
  "name": "STAVANGER", 
  "ForkEvent": 24
 }, 
 {
  "lat": null, 
  "WatchEvent": 1, 
  "lng": null, 
  "IssuesEvent": 1, 
  "name": "XINTEND"
 }, 
 {
  "name": "TORONTO, ON CANADA", 
  "PullRequestEvent": 1, 
  "IssueCommentEvent": 2, 
  "PushEvent": 8, 
  "CommitCommentEvent": 1, 
  "lat": 43.6529206, 
  "WatchEvent": 1, 
  "lng": -79.3849008, 
  "ForkEvent": 1
 }, 
 {
  "MemberEvent": 2, 
  "name": "DRESDEN", 
  "CreateEvent": 1, 
  "IssueCommentEvent": 13, 
  "PushEvent": 43, 
  "lat": 51.0763286, 
  "WatchEvent": 4, 
  "lng": 13.7384089767404, 
  "IssuesEvent": 5, 
  "GollumEvent": 2
 }, 
 {
  "lat": 42.2223218, 
  "WatchEvent": 4, 
  "lng": -70.999492, 
  "name": "BRAINTREE, MA"
 }, 
 {
  "lat": 43.9145244, 
  "lng": -69.9653278, 
  "CreateEvent": 1, 
  "name": "BRUNSWICK, MAINE", 
  "PushEvent": 6
 }, 
 {
  "ForkEvent": 2, 
  "CreateEvent": 1, 
  "PullRequestEvent": 2, 
  "PushEvent": 2, 
  "IssueCommentEvent": 14, 
  "lat": 51.75, 
  "WatchEvent": 2, 
  "lng": -0.75, 
  "IssuesEvent": 3, 
  "name": "BUCKINGHAMSHIRE, UNITED KINGDOM"
 }, 
 {
  "ForkEvent": 2, 
  "PushEvent": 3, 
  "name": "DELFT, THE NETHERLANDS", 
  "lat": 52.0114017, 
  "WatchEvent": 1, 
  "lng": 4.35839, 
  "CreateEvent": 1
 }, 
 {
  "PushEvent": 67, 
  "ForkEvent": 3, 
  "PullRequestEvent": 2, 
  "IssueCommentEvent": 5, 
  "name": "VENICE, ITALY", 
  "lat": 45.4384143, 
  "WatchEvent": 2, 
  "lng": 12.318564, 
  "IssuesEvent": 11, 
  "CreateEvent": 21
 }, 
 {
  "lat": 39.9272459, 
  "WatchEvent": 12, 
  "lng": 32.8520044, 
  "name": "ANKARA, TURKEY", 
  "PushEvent": 2
 }, 
 {
  "ForkEvent": 1, 
  "PushEvent": 6, 
  "name": "GUATEMALA", 
  "lat": 15.6356088, 
  "WatchEvent": 11, 
  "lng": -89.8988087, 
  "IssuesEvent": 1, 
  "CreateEvent": 6
 }, 
 {
  "lat": 49.494202, 
  "WatchEvent": 2, 
  "lng": -117.2878681, 
  "name": "NELSON, BC"
 }, 
 {
  "lat": -22.9112163, 
  "WatchEvent": 3, 
  "lng": -43.2093781, 
  "name": "RIO DE JANEIRO/RJ", 
  "ForkEvent": 2
 }, 
 {
  "lat": null, 
  "lng": null, 
  "name": "CHICAGO SUBURBS, ILLINOIS, US", 
  "ForkEvent": 1
 }, 
 {
  "name": "VICTORIA, B.C. CANADA", 
  "PushEvent": 17, 
  "CommitCommentEvent": 2, 
  "lat": null, 
  "lng": null, 
  "CreateEvent": 2
 }, 
 {
  "PushEvent": 11, 
  "ForkEvent": 2, 
  "PullRequestEvent": 2, 
  "IssueCommentEvent": 3, 
  "name": "PROVIDENCIA, CHILE", 
  "lat": -33.4290421, 
  "WatchEvent": 2, 
  "lng": -70.6112775570642, 
  "CreateEvent": 4
 }, 
 {
  "lat": 44.9504037, 
  "lng": -93.1015026, 
  "IssuesEvent": 1, 
  "name": "ST PAUL, MN"
 }, 
 {
  "lat": 55.994043, 
  "lng": 37.17167505, 
  "CreateEvent": 2, 
  "name": "RUSSIA, MOSCOW->ZELENOGRAD", 
  "PushEvent": 7
 }, 
 {
  "PublicEvent": 2, 
  "name": "LEHIGH VALLEY, PA", 
  "lat": 40.5883246, 
  "WatchEvent": 1, 
  "lng": -75.5640246, 
  "ForkEvent": 1
 }, 
 {
  "MemberEvent": 1, 
  "name": "KIEV.UA", 
  "PushEvent": 18, 
  "lat": 50.4499875, 
  "lng": 30.5234937, 
  "CreateEvent": 2
 }, 
 {
  "lat": 51.8950341, 
  "WatchEvent": 2, 
  "lng": -4.906806, 
  "name": "SOUTH WALES, UK"
 }, 
 {
  "ForkEvent": 1, 
  "PullRequestEvent": 3, 
  "PushEvent": 1, 
  "IssueCommentEvent": 3, 
  "lat": 55.0, 
  "lng": -125.0, 
  "name": "BRITISH COLUMBIA"
 }, 
 {
  "ForkEvent": 13, 
  "CreateEvent": 4, 
  "PullRequestEvent": 6, 
  "IssueCommentEvent": 23, 
  "PushEvent": 84, 
  "DeleteEvent": 1, 
  "lat": 37.3541132, 
  "WatchEvent": 24, 
  "lng": -121.9551744, 
  "IssuesEvent": 6, 
  "name": "SANTA CLARA, CA"
 }, 
 {
  "name": "PITTSBURGH PA", 
  "PullRequestEvent": 1, 
  "PushEvent": 1, 
  "IssueCommentEvent": 4, 
  "lat": 40.4416941, 
  "WatchEvent": 4, 
  "lng": -79.9900861
 }, 
 {
  "MemberEvent": 1, 
  "PushEvent": 46, 
  "ForkEvent": 3, 
  "IssueCommentEvent": 2, 
  "name": "\u5317\u4eac", 
  "lat": 39.9074609, 
  "WatchEvent": 3, 
  "lng": 116.3931621, 
  "IssuesEvent": 1, 
  "CreateEvent": 5
 }, 
 {
  "lat": -23.5503279, 
  "WatchEvent": 2, 
  "lng": -46.6339647, 
  "name": "SAO PAULO / SP BR"
 }, 
 {
  "lat": 29.55937855, 
  "lng": -95.0899355089614, 
  "PushEvent": 1, 
  "name": "BUILDING 47", 
  "ForkEvent": 1
 }, 
 {
  "lat": 37.3230107, 
  "WatchEvent": 2, 
  "lng": -122.0322519, 
  "name": "CUPERTINO CA"
 }, 
 {
  "name": "FOLSOM, CA", 
  "PullRequestEvent": 1, 
  "IssueCommentEvent": 2, 
  "PushEvent": 7, 
  "lat": 38.67454495, 
  "WatchEvent": 3, 
  "lng": -121.14391657446, 
  "CreateEvent": 1
 }, 
 {
  "name": "BASEL - Z\u00fcRICH", 
  "PullRequestEvent": 7, 
  "PushEvent": 11, 
  "IssueCommentEvent": 55, 
  "lat": null, 
  "WatchEvent": 10, 
  "lng": null, 
  "IssuesEvent": 13, 
  "CreateEvent": 3
 }, 
 {
  "name": "DOLORES PARK", 
  "PullRequestEvent": 2, 
  "IssueCommentEvent": 1, 
  "ForkEvent": 2, 
  "lat": 29.982343, 
  "lng": -90.146926, 
  "IssuesEvent": 1, 
  "CreateEvent": 2
 }, 
 {
  "name": "FELTON, CA", 
  "PullRequestEvent": 1, 
  "IssueCommentEvent": 1, 
  "PushEvent": 1, 
  "lat": 37.0415635, 
  "lng": -122.076460624151
 }, 
 {
  "lat": 46.8257374, 
  "lng": -71.2349114, 
  "CreateEvent": 1, 
  "name": "QUEBEC, QC, CANADA", 
  "PushEvent": 3
 }, 
 {
  "lat": 50.0606547, 
  "WatchEvent": 2, 
  "lng": 19.9370559, 
  "name": "CRACOW/POLAND"
 }, 
 {
  "lat": null, 
  "lng": null, 
  "name": "BANAGALORE", 
  "PushEvent": 1
 }, 
 {
  "lat": 39.2128338, 
  "WatchEvent": 8, 
  "lng": -76.7137155, 
  "name": "ELKRIDGE, MD", 
  "PushEvent": 7
 }, 
 {
  "lat": -20.4704658, 
  "lng": -54.6239059, 
  "CreateEvent": 1, 
  "name": "CAMPO GRANDE - MS", 
  "PushEvent": 8
 }, 
 {
  "MemberEvent": 1, 
  "ForkEvent": 4, 
  "PullRequestEvent": 2, 
  "PushEvent": 5, 
  "lat": 45.74866195, 
  "WatchEvent": 2, 
  "lng": 21.2225516253049, 
  "CreateEvent": 1, 
  "name": "TIMISOARA, ROMANIA"
 }, 
 {
  "lat": 37.3438502, 
  "WatchEvent": 1, 
  "lng": -121.8831349, 
  "name": "SAN JOS\u00e9, CA"
 }, 
 {
  "name": "ULAN-UDE, RUSSIA", 
  "CommitCommentEvent": 1, 
  "lat": 51.8361244, 
  "WatchEvent": 5, 
  "lng": 107.5893301, 
  "ForkEvent": 2
 }, 
 {
  "lat": null, 
  "WatchEvent": 1, 
  "lng": null, 
  "name": "\u56db\u5ddd\u6210\u90fd", 
  "ForkEvent": 2
 }, 
 {
  "lat": 51.1574786, 
  "WatchEvent": 1, 
  "lng": 4.4384284, 
  "name": "EDEGEM, ANTWERP"
 }, 
 {
  "PushEvent": 67, 
  "ForkEvent": 9, 
  "GollumEvent": 1, 
  "PullRequestEvent": 8, 
  "IssueCommentEvent": 12, 
  "name": "KRAKOW, POLAND", 
  "CommitCommentEvent": 2, 
  "lat": 50.04696605, 
  "WatchEvent": 15, 
  "lng": 19.997215975018, 
  "IssuesEvent": 6, 
  "CreateEvent": 12
 }, 
 {
  "lat": 20.0171109, 
  "WatchEvent": 1, 
  "lng": 103.378253, 
  "name": "LAGOS"
 }, 
 {
  "lat": 48.408748, 
  "WatchEvent": 1, 
  "lng": 22.172076, 
  "name": "Z\u00e1HONY"
 }, 
 {
  "name": "BLAGOVESCHENSK, AMUR REGION, RUSSIAN FEDERATION", 
  "GollumEvent": 1, 
  "IssueCommentEvent": 2, 
  "PushEvent": 27, 
  "lat": null, 
  "lng": null, 
  "IssuesEvent": 1, 
  "CreateEvent": 3
 }, 
 {
  "lat": 42.2089215, 
  "lng": -73.3486894012635, 
  "name": "GREAT BARRINGTON, MA", 
  "IssueCommentEvent": 2
 }, 
 {
  "name": "HONDURAS", 
  "PullRequestEvent": 1, 
  "PushEvent": 4, 
  "CommitCommentEvent": 1, 
  "ForkEvent": 1, 
  "lat": 15.0610686, 
  "WatchEvent": 8, 
  "lng": -84.5978534, 
  "CreateEvent": 4
 }, 
 {
  "lat": -21.291034, 
  "lng": -50.343162, 
  "ForkEvent": 1, 
  "name": "BIRIGUI-SP", 
  "PushEvent": 29
 }, 
 {
  "ForkEvent": 2, 
  "GollumEvent": 2, 
  "PushEvent": 7, 
  "IssueCommentEvent": 13, 
  "lat": 45.9896587, 
  "WatchEvent": 1, 
  "lng": -94.6113288, 
  "IssuesEvent": 5, 
  "name": "MINNESOTA, USA"
 }, 
 {
  "lat": 45.9454963, 
  "WatchEvent": 2, 
  "lng": -66.6530579054984, 
  "name": "FREDERICTON, NB, CANADA"
 }, 
 {
  "lat": 50.8642636, 
  "WatchEvent": 1, 
  "lng": 7.7283493, 
  "name": "MORSBACH, GERMANY"
 }, 
 {
  "lat": 13.6942877, 
  "lng": 100.7513509, 
  "IssuesEvent": 1, 
  "name": "BKK, THAILAND", 
  "IssueCommentEvent": 12
 }, 
 {
  "ForkEvent": 7, 
  "PullRequestEvent": 4, 
  "PushEvent": 12, 
  "lat": 33.5896837, 
  "WatchEvent": 22, 
  "lng": 119.0212439, 
  "name": "HUAI'AN, CHINA"
 }, 
 {
  "lat": -8.0581077, 
  "WatchEvent": 1, 
  "lng": -34.8979047, 
  "name": "RECIFE, PE - BRAZIL"
 }, 
 {
  "name": "ATHENS, OH", 
  "PullRequestEvent": 1, 
  "PushEvent": 5, 
  "IssueCommentEvent": 7, 
  "lat": 39.3292396, 
  "WatchEvent": 1, 
  "lng": -82.1012555, 
  "GollumEvent": 3
 }, 
 {
  "lat": 25.0328171, 
  "WatchEvent": 1, 
  "lng": -101.125753335517, 
  "name": "SALTILLO, COAHUILA, MEXICO"
 }, 
 {
  "lat": 33.995578, 
  "lng": -86.0193866293863, 
  "name": "GADSDEN ALABAMA", 
  "PushEvent": 1
 }, 
 {
  "name": "PORTOLA VALLEY, CA", 
  "PullRequestEvent": 1, 
  "IssueCommentEvent": 1, 
  "PushEvent": 31, 
  "lat": 37.370191, 
  "WatchEvent": 1, 
  "lng": -122.225887332287, 
  "CreateEvent": 1
 }, 
 {
  "lat": null, 
  "lng": null, 
  "ForkEvent": 1, 
  "name": "FLANDERS, EU", 
  "PushEvent": 25
 }, 
 {
  "MemberEvent": 1, 
  "PullRequestReviewCommentEvent": 57, 
  "name": "AMSTERDAM, THE NETHERLANDS", 
  "GollumEvent": 30, 
  "PullRequestEvent": 99, 
  "PushEvent": 419, 
  "IssueCommentEvent": 502, 
  "DeleteEvent": 10, 
  "CommitCommentEvent": 96, 
  "ForkEvent": 17, 
  "lat": 52.3710088, 
  "WatchEvent": 42, 
  "lng": 4.9001115, 
  "IssuesEvent": 82, 
  "CreateEvent": 74
 }, 
 {
  "lat": 45.7059416, 
  "WatchEvent": 1, 
  "lng": 13.8672413, 
  "name": "SE\u017eANA"
 }, 
 {
  "PushEvent": 29, 
  "ForkEvent": 1, 
  "PullRequestEvent": 3, 
  "IssueCommentEvent": 3, 
  "name": "INDIANA, UNITED STATES", 
  "lat": 40.3270127, 
  "lng": -86.1746933, 
  "CreateEvent": 4
 }, 
 {
  "lat": -30.7602447, 
  "WatchEvent": 3, 
  "lng": -58.0057901, 
  "name": "CANADA, EH"
 }, 
 {
  "lat": null, 
  "lng": null, 
  "CreateEvent": 1, 
  "name": "PATAGONYA", 
  "PushEvent": 56
 }, 
 {
  "ForkEvent": 1, 
  "PushEvent": 57, 
  "name": "KHARKIV", 
  "lat": 49.99026, 
  "WatchEvent": 1, 
  "lng": 36.2303797, 
  "CreateEvent": 1
 }, 
 {
  "ForkEvent": 1, 
  "PushEvent": 10, 
  "name": "KOCHI, KERALA", 
  "lat": 9.94722125, 
  "lng": 76.2514444837443, 
  "CreateEvent": 2
 }, 
 {
  "lat": 31.3852501, 
  "WatchEvent": 1, 
  "lng": 120.9514805, 
  "name": "\u6606\u5c71", 
  "ForkEvent": 2
 }, 
 {
  "name": "CARMEL, IN", 
  "PushEvent": 15, 
  "ForkApplyEvent": 1, 
  "lat": 39.9783711, 
  "WatchEvent": 9, 
  "lng": -86.1180435, 
  "IssuesEvent": 1, 
  "CreateEvent": 1
 }, 
 {
  "name": "TACOMA, WA", 
  "GollumEvent": 8, 
  "PullRequestEvent": 1, 
  "IssueCommentEvent": 8, 
  "PushEvent": 38, 
  "ForkEvent": 3, 
  "lat": 47.2495798, 
  "WatchEvent": 1, 
  "CommitCommentEvent": 1, 
  "IssuesEvent": 19, 
  "lng": -122.4398746, 
  "CreateEvent": 7
 }, 
 {
  "lat": 25.95306985, 
  "WatchEvent": 1, 
  "lng": -80.1366717391487, 
  "name": "AVENTURA, FL, USA"
 }, 
 {
  "DownloadEvent": 1, 
  "ForkEvent": 19, 
  "GollumEvent": 3, 
  "CreateEvent": 12, 
  "IssueCommentEvent": 37, 
  "PushEvent": 72, 
  "PullRequestEvent": 10, 
  "CommitCommentEvent": 1, 
  "DeleteEvent": 2, 
  "WatchEvent": 24, 
  "lng": 9.1906166, 
  "IssuesEvent": 12, 
  "lat": 45.4666211, 
  "name": "MILAN, ITALY"
 }, 
 {
  "name": "SOROCABA", 
  "CreateEvent": 1, 
  "PushEvent": 1, 
  "CommitCommentEvent": 1, 
  "lat": -23.501667, 
  "WatchEvent": 3, 
  "lng": -47.458056, 
  "IssuesEvent": 1, 
  "ForkEvent": 1
 }, 
 {
  "PullRequestEvent": 3, 
  "lat": 38.955886, 
  "lng": -94.45335, 
  "name": "NORTHERN VA", 
  "PushEvent": 3
 }, 
 {
  "name": "UTRECHT, NETHERLANDS", 
  "IssueCommentEvent": 1, 
  "PushEvent": 39, 
  "lat": 52.11855295, 
  "WatchEvent": 2, 
  "lng": 5.15259877272615, 
  "IssuesEvent": 2, 
  "CreateEvent": 1
 }, 
 {
  "lat": -30.0330556, 
  "WatchEvent": 1, 
  "lng": -51.23, 
  "name": "PORTO ALEGRE - RS/BRASIL"
 }, 
 {
  "ForkEvent": 4, 
  "PullRequestEvent": 6, 
  "IssueCommentEvent": 6, 
  "PushEvent": 17, 
  "lat": 32.0804808, 
  "WatchEvent": 5, 
  "lng": 34.7805274, 
  "CreateEvent": 3, 
  "name": "TEL AVIV, ISRAEL"
 }, 
 {
  "lat": 40.5187154, 
  "WatchEvent": 1, 
  "lng": -74.4120953, 
  "name": "EDISON, NJ", 
  "ForkEvent": 2
 }, 
 {
  "lat": 55.7718649, 
  "lng": 12.5051413, 
  "name": "LYNGBY", 
  "PushEvent": 6
 }, 
 {
  "lat": null, 
  "lng": null, 
  "name": "BEIJING OF CHINA", 
  "ForkEvent": 1
 }, 
 {
  "lat": 27.7567667, 
  "WatchEvent": 25, 
  "lng": -81.4639835, 
  "name": "FLORIDA, UNITED STATES"
 }, 
 {
  "lat": 60.2051454, 
  "lng": 24.6569676, 
  "name": "ESPOO", 
  "ForkEvent": 1
 }, 
 {
  "ForkEvent": 3, 
  "PullRequestEvent": 3, 
  "IssueCommentEvent": 4, 
  "PushEvent": 14, 
  "lat": 33.9458443, 
  "WatchEvent": 5, 
  "lng": -117.410096815875, 
  "CreateEvent": 2, 
  "name": "RIVERSIDE, CA"
 }, 
 {
  "lat": 48.7098404, 
  "WatchEvent": 1, 
  "lng": 44.5155471, 
  "name": "VOLGOGRAD, RUSSIA"
 }, 
 {
  "lat": 46.0915426, 
  "lng": -64.7952367, 
  "name": "MONCTON, NB CANADA", 
  "ForkEvent": 1
 }, 
 {
  "ForkEvent": 2, 
  "PullRequestEvent": 3, 
  "IssueCommentEvent": 4, 
  "PushEvent": 7, 
  "CommitCommentEvent": 2, 
  "lat": 51.8876651, 
  "lng": 5.7756163, 
  "IssuesEvent": 2, 
  "name": "LOENEN, GELDERLAND, NETHERLANDS"
 }, 
 {
  "lat": 50.4470193, 
  "lng": 4.6354624, 
  "name": "AUVELAIS", 
  "PushEvent": 1
 }, 
 {
  "name": "TOCHIGI, JAPAN", 
  "PushEvent": 5, 
  "lat": 36.371484, 
  "WatchEvent": 4, 
  "lng": 139.73081, 
  "CreateEvent": 7
 }, 
 {
  "lat": null, 
  "WatchEvent": 3, 
  "lng": null, 
  "name": "VYARA,GUJARAT,INDIA"
 }, 
 {
  "lat": 52.0207745, 
  "WatchEvent": 2, 
  "lng": 8.5308962, 
  "name": "BIELEFELD"
 }, 
 {
  "MemberEvent": 6, 
  "PublicEvent": 6, 
  "PullRequestReviewCommentEvent": 13, 
  "name": "GERMANY", 
  "GollumEvent": 21, 
  "PullRequestEvent": 108, 
  "IssueCommentEvent": 375, 
  "PushEvent": 1573, 
  "DeleteEvent": 39, 
  "ForkEvent": 112, 
  "lat": 54.0731702, 
  "WatchEvent": 354, 
  "CommitCommentEvent": 19, 
  "IssuesEvent": 165, 
  "lng": 7.45860589983153, 
  "CreateEvent": 199
 }, 
 {
  "MemberEvent": 2, 
  "PullRequestReviewCommentEvent": 3, 
  "ForkEvent": 9, 
  "GollumEvent": 1, 
  "PullRequestEvent": 1, 
  "IssueCommentEvent": 1, 
  "PushEvent": 167, 
  "name": "DHAKA, BANGLADESH", 
  "lat": 23.7282161, 
  "WatchEvent": 15, 
  "lng": 90.4098792, 
  "IssuesEvent": 4, 
  "CreateEvent": 14
 }, 
 {
  "lat": 40.0796319, 
  "WatchEvent": 1, 
  "lng": -89.4339809, 
  "IssuesEvent": 1, 
  "name": "ILLINOIS, USA"
 }, 
 {
  "ForkEvent": 5, 
  "PullRequestEvent": 2, 
  "IssueCommentEvent": 5, 
  "PushEvent": 10, 
  "lat": -27.5973002, 
  "WatchEvent": 3, 
  "lng": -48.5496098, 
  "name": "FLORIAN\u00f3POLIS, BRAZIL"
 }, 
 {
  "lat": 50.5952987, 
  "lng": 36.5869335, 
  "CreateEvent": 3, 
  "name": "RUSSIA, BELGOROD", 
  "PushEvent": 5
 }, 
 {
  "MemberEvent": 1, 
  "name": "DACULA, GA", 
  "PushEvent": 17, 
  "lat": 33.9887165, 
  "lng": -83.8979573, 
  "CreateEvent": 3
 }, 
 {
  "name": "RUGBY, WARWICKSHIRE, UK", 
  "IssueCommentEvent": 5, 
  "PushEvent": 13, 
  "lat": 52.3726682, 
  "lng": -1.2620038, 
  "CreateEvent": 1
 }, 
 {
  "lat": 53.4726736, 
  "lng": -2.2926886, 
  "name": "SALFORD QUAYS", 
  "ForkEvent": 1
 }, 
 {
  "lat": 50.7450733, 
  "WatchEvent": 2, 
  "lng": 25.320078, 
  "name": "LUTSK"
 }, 
 {
  "lat": 45.37392535, 
  "WatchEvent": 1, 
  "lng": 36.5258265993353, 
  "name": "KH, UA"
 }, 
 {
  "lat": -7.8693729, 
  "WatchEvent": 1, 
  "lng": 110.402582, 
  "name": "YOGYAKARTA, INDONESIA", 
  "CreateEvent": 1
 }, 
 {
  "lat": 42.2241545, 
  "WatchEvent": 1, 
  "lng": -72.640217520801, 
  "name": "HOLYOKE, MA", 
  "IssueCommentEvent": 1
 }, 
 {
  "ForkEvent": 3, 
  "PullRequestEvent": 1, 
  "PushEvent": 50, 
  "name": "CLUJ-NAPOCA, ROMANIA", 
  "lat": 46.7693367, 
  "WatchEvent": 5, 
  "lng": 23.5900604, 
  "GollumEvent": 1, 
  "CreateEvent": 4
 }, 
 {
  "lat": 52.166667, 
  "lng": -2.166667, 
  "name": "WORCESTERSHIRE", 
  "PushEvent": 9
 }, 
 {
  "lat": 55.0192459, 
  "lng": -1.67412352423817, 
  "name": "NEWCASTLE-UPON-TYNE, UK", 
  "ForkEvent": 1
 }, 
 {
  "ForkEvent": 3, 
  "PullRequestEvent": 2, 
  "PushEvent": 5, 
  "lat": 25.0376382, 
  "WatchEvent": 1, 
  "lng": 121.564459, 
  "IssuesEvent": 1, 
  "name": "TAIPEI TAIWAN"
 }, 
 {
  "lat": 22.54170505, 
  "lng": 88.3163717057693, 
  "name": "KOLKATA ( INDIA )", 
  "ForkEvent": 1
 }, 
 {
  "PushEvent": 48, 
  "ForkEvent": 2, 
  "IssueCommentEvent": 2, 
  "name": "VENTURA, CA", 
  "lat": 34.343631, 
  "WatchEvent": 18, 
  "lng": -119.29516578124, 
  "CreateEvent": 3
 }, 
 {
  "lat": 40.8050565, 
  "lng": -81.935143, 
  "name": "WOOSTER, OH", 
  "PushEvent": 3
 }, 
 {
  "lat": 56.8391034, 
  "WatchEvent": 1, 
  "lng": 60.6082502, 
  "name": "EKATERINBURG"
 }, 
 {
  "ForkEvent": 1, 
  "PushEvent": 9, 
  "lat": 41.6385167, 
  "WatchEvent": 2, 
  "lng": 2.3558408, 
  "name": "CARDEDEU, BARCELONA"
 }, 
 {
  "MemberEvent": 1, 
  "name": "POLAND, KRAK\u00f3W", 
  "GollumEvent": 2, 
  "PullRequestEvent": 4, 
  "IssueCommentEvent": 18, 
  "PushEvent": 42, 
  "CommitCommentEvent": 8, 
  "ForkEvent": 3, 
  "lat": 50.0757486, 
  "WatchEvent": 6, 
  "lng": 20.1362544373619, 
  "IssuesEvent": 9, 
  "CreateEvent": 5
 }, 
 {
  "name": "LOS ANGELES, CA, USA", 
  "PullRequestEvent": 7, 
  "IssueCommentEvent": 6, 
  "PushEvent": 12, 
  "ForkEvent": 3, 
  "lat": 34.0501713, 
  "WatchEvent": 17, 
  "CommitCommentEvent": 2, 
  "IssuesEvent": 2, 
  "lng": -118.2419714, 
  "CreateEvent": 4
 }, 
 {
  "IssuesEvent": 3, 
  "name": "RUSSIA, SAMARA", 
  "PullRequestEvent": 6, 
  "IssueCommentEvent": 4, 
  "PushEvent": 25, 
  "DeleteEvent": 2, 
  "ForkEvent": 3, 
  "lat": 53.1984756, 
  "WatchEvent": 7, 
  "lng": 50.1142415, 
  "GollumEvent": 3, 
  "CreateEvent": 8
 }, 
 {
  "MemberEvent": 2, 
  "name": "OHIO", 
  "PullRequestEvent": 14, 
  "IssueCommentEvent": 26, 
  "PushEvent": 119, 
  "DeleteEvent": 2, 
  "ForkEvent": 15, 
  "lat": 40.2253569, 
  "WatchEvent": 47, 
  "CommitCommentEvent": 13, 
  "IssuesEvent": 22, 
  "lng": -82.6881395, 
  "CreateEvent": 21
 }, 
 {
  "ForkEvent": 1, 
  "PullRequestEvent": 1, 
  "PushEvent": 8, 
  "name": "MARIETTA, GA", 
  "lat": 33.952602, 
  "lng": -84.5499327, 
  "CreateEvent": 2
 }, 
 {
  "MemberEvent": 1, 
  "name": "SHEFFIELD, UK", 
  "PullRequestEvent": 7, 
  "IssueCommentEvent": 30, 
  "PushEvent": 65, 
  "DeleteEvent": 1, 
  "ForkEvent": 6, 
  "lat": 53.3820287, 
  "WatchEvent": 7, 
  "CommitCommentEvent": 1, 
  "IssuesEvent": 4, 
  "lng": -1.4657174, 
  "CreateEvent": 19
 }, 
 {
  "lat": 54.99105565, 
  "WatchEvent": 1, 
  "lng": 73.2887755117637, 
  "name": "OMSK/RUSSIAN"
 }, 
 {
  "lat": null, 
  "WatchEvent": 1, 
  "lng": null, 
  "name": "HTTP://GITORIOUS.ORG/TLEVINE/"
 }, 
 {
  "lat": null, 
  "lng": null, 
  "name": "NUREMBERG, GERMANY (EDDN)", 
  "PushEvent": 1
 }, 
 {
  "name": "PHNOM PENH, CAMBODIA", 
  "IssueCommentEvent": 4, 
  "lat": 11.57944155, 
  "WatchEvent": 3, 
  "lng": 104.838559046362, 
  "IssuesEvent": 1
 }, 
 {
  "lat": -8.4666145, 
  "lng": -51.3333976, 
  "CreateEvent": 1, 
  "name": "BRASILIA", 
  "PushEvent": 34
 }, 
 {
  "lat": 40.1105875, 
  "WatchEvent": 2, 
  "lng": -88.2072697, 
  "name": "URBANA CHAMPAIGN, IL", 
  "PushEvent": 4
 }, 
 {
  "ForkEvent": 4, 
  "PullRequestEvent": 3, 
  "PushEvent": 14, 
  "IssueCommentEvent": 1, 
  "CommitCommentEvent": 1, 
  "lat": 31.2253441, 
  "WatchEvent": 8, 
  "lng": 121.4888922, 
  "IssuesEvent": 3, 
  "name": "SHANGHAI,CHINA"
 }, 
 {
  "lat": 51.768749, 
  "lng": 19.4569817, 
  "name": "\u0141\u00f3D\u017a POLAND", 
  "PushEvent": 18
 }, 
 {
  "lat": null, 
  "lng": null, 
  "name": "ITAPERUNA/CAMPOS DOS GOYTACAZES", 
  "PushEvent": 1
 }, 
 {
  "lat": 40.3042774, 
  "WatchEvent": 4, 
  "lng": -74.1004185, 
  "name": "TINTON FALLS, NJ"
 }, 
 {
  "PullRequestReviewCommentEvent": 2, 
  "name": "CHICAGO, IL, USA", 
  "PullRequestEvent": 14, 
  "PushEvent": 116, 
  "IssueCommentEvent": 163, 
  "DeleteEvent": 1, 
  "CommitCommentEvent": 8, 
  "ForkEvent": 2, 
  "lat": 41.8756208, 
  "WatchEvent": 1, 
  "lng": -87.6243706, 
  "IssuesEvent": 41, 
  "CreateEvent": 28
 }, 
 {
  "lat": 63.0957722, 
  "IssueCommentEvent": 2, 
  "lng": 21.6159187, 
  "name": "FINLAND, VAASA", 
  "PushEvent": 41
 }, 
 {
  "ForkEvent": 7, 
  "PullRequestEvent": 1, 
  "IssueCommentEvent": 3, 
  "PushEvent": 9, 
  "lat": 40.4167047, 
  "WatchEvent": 4, 
  "lng": -3.7035825, 
  "IssuesEvent": 2, 
  "name": "MADRID (SPAIN)"
 }, 
 {
  "name": "NOIDA, INDIA", 
  "PullRequestEvent": 2, 
  "PushEvent": 2, 
  "lat": 28.5766287, 
  "lng": 77.3297826, 
  "ForkEvent": 2
 }, 
 {
  "ForkEvent": 4, 
  "PullRequestEvent": 1, 
  "PushEvent": 7, 
  "name": "CHINA,HUIZHOU CITY, GUANGDONG PROVINCE", 
  "lat": null, 
  "WatchEvent": 9, 
  "lng": null, 
  "CreateEvent": 2
 }, 
 {
  "lat": 52.0959423, 
  "lng": 5.1104136, 
  "name": "UTRECHT / AMSTERDAM", 
  "IssueCommentEvent": 1
 }, 
 {
  "lat": null, 
  "WatchEvent": 2, 
  "lng": null, 
  "name": "SHIROKANEDAI OR EBISU, TOKYO"
 }, 
 {
  "lat": 42.8463696, 
  "WatchEvent": 1, 
  "lng": -2.6725191, 
  "name": "GASTEIZ, BASQUE COUNTRY"
 }, 
 {
  "lat": 48.4492822, 
  "lng": -68.5292478, 
  "name": "RIMOUSKI, QU\u00e9BEC, CANADA", 
  "PushEvent": 78
 }, 
 {
  "lat": -34.7461982, 
  "lng": 150.8278546, 
  "name": "GERRINGONG, AUSTRALIA", 
  "ForkEvent": 1
 }, 
 {
  "lat": 25.91307645, 
  "WatchEvent": 1, 
  "lng": -80.3213516519633, 
  "name": "MIAMI LAKES, FL"
 }, 
 {
  "lat": -19.9227318, 
  "lng": -43.9450948, 
  "ForkEvent": 1, 
  "name": "BELO HORIZONTE, MG, BRAZIL", 
  "IssueCommentEvent": 1
 }, 
 {
  "lat": 40.6958996, 
  "lng": -80.0117254, 
  "name": "MARS, PA, USA", 
  "PushEvent": 2
 }, 
 {
  "name": "POTSDAM/GERMANY", 
  "DeleteEvent": 2, 
  "PushEvent": 2, 
  "lat": 52.4009818, 
  "WatchEvent": 15, 
  "lng": 13.0622213, 
  "CreateEvent": 3
 }, 
 {
  "ForkEvent": 1, 
  "PushEvent": 16, 
  "name": "GDYNIA", 
  "lat": 54.5164982, 
  "WatchEvent": 10, 
  "lng": 18.5402738, 
  "CreateEvent": 7
 }, 
 {
  "name": "KENNEDY SPACE CENTER, FL", 
  "PullRequestEvent": 1, 
  "PushEvent": 1, 
  "lat": null, 
  "lng": null, 
  "ForkEvent": 1
 }, 
 {
  "lat": -22.9112163, 
  "lng": -43.2093781, 
  "name": "RIO DE JANEIRO, RJ - BRASIL", 
  "PushEvent": 10
 }, 
 {
  "lat": 40.7305991, 
  "WatchEvent": 1, 
  "lng": -73.9865812, 
  "name": "NEW YORK CITY, NEW YORK"
 }, 
 {
  "PushEvent": 95, 
  "ForkEvent": 2, 
  "GollumEvent": 1, 
  "DeleteEvent": 4, 
  "IssueCommentEvent": 4, 
  "name": "UKRAINE, DONETSK", 
  "PullRequestEvent": 2, 
  "lat": 48.40237555, 
  "WatchEvent": 2, 
  "lng": 37.1762593635771, 
  "IssuesEvent": 1, 
  "CreateEvent": 4
 }, 
 {
  "lat": 41.7412051, 
  "WatchEvent": 3, 
  "lng": -73.5765151, 
  "name": "DOVER PLAINS, NY"
 }, 
 {
  "name": "BOSTON, USA", 
  "PushEvent": 7, 
  "lat": 42.3604823, 
  "WatchEvent": 1, 
  "lng": -71.0595678, 
  "CreateEvent": 6
 }, 
 {
  "name": "INDONESIA, BALI", 
  "PullRequestEvent": 6, 
  "PushEvent": 4, 
  "IssueCommentEvent": 8, 
  "lat": 48.8490942, 
  "WatchEvent": 1, 
  "lng": 2.3396105, 
  "IssuesEvent": 3, 
  "ForkEvent": 1
 }, 
 {
  "lat": 24.497442, 
  "WatchEvent": 1, 
  "lng": 118.1355644, 
  "name": "XIAMEN, CHINA"
 }, 
 {
  "name": "CALGARY CANADA", 
  "PushEvent": 74, 
  "lat": 51.0529691, 
  "lng": -114.062545, 
  "GollumEvent": 1, 
  "CreateEvent": 2
 }, 
 {
  "name": "OAKLAND, CALIFORNIA, USA", 
  "PullRequestEvent": 1, 
  "ForkEvent": 1, 
  "lat": 37.8043808, 
  "WatchEvent": 1, 
  "lng": -122.2708166, 
  "IssuesEvent": 1, 
  "CreateEvent": 1
 }, 
 {
  "lat": -33.9175545, 
  "lng": 151.2291515, 
  "name": "UNSW, SYDNEY, AUSTRALIA", 
  "ForkEvent": 1
 }, 
 {
  "lat": null, 
  "lng": null, 
  "name": "KRASNOYARK, RUSSIA", 
  "PushEvent": 2
 }, 
 {
  "name": "JAPAN, CANADA, MEXICO, SAN FRANCISCO", 
  "PushEvent": 19, 
  "lat": null, 
  "WatchEvent": 8, 
  "lng": null, 
  "CreateEvent": 9
 }, 
 {
  "lat": -23.5503279, 
  "lng": -46.6339647, 
  "CreateEvent": 1, 
  "name": "S\u00e3O PAULO - SP, BRASIL", 
  "PushEvent": 24
 }, 
 {
  "lat": -33.4266395, 
  "WatchEvent": 1, 
  "lng": 151.4179812, 
  "name": "CENTRAL COAST NSW, AUSTRALIA"
 }, 
 {
  "ForkEvent": 1, 
  "PullRequestEvent": 1, 
  "PushEvent": 6, 
  "lat": 54.3798096, 
  "lng": -6.0179383, 
  "name": "DROMARA, NORTHERN IRELAND"
 }, 
 {
  "ForkEvent": 3, 
  "PullRequestEvent": 5, 
  "IssueCommentEvent": 6, 
  "PushEvent": 24, 
  "CommitCommentEvent": 3, 
  "lat": 36.8190369, 
  "WatchEvent": 1, 
  "lng": -76.2749399, 
  "CreateEvent": 1, 
  "name": "CHESAPEAKE, VIRGINIA"
 }, 
 {
  "ForkEvent": 1, 
  "PullRequestEvent": 1, 
  "IssueCommentEvent": 10, 
  "PushEvent": 10, 
  "lat": 35.6131356, 
  "lng": 139.6379312, 
  "IssuesEvent": 3, 
  "name": "TOKYO, SETAGAYA"
 }, 
 {
  "PublicEvent": 1, 
  "name": "MEGURO, TOKYO, JAPAN", 
  "PushEvent": 35, 
  "lat": 35.6329497, 
  "WatchEvent": 7, 
  "lng": 139.6981324, 
  "IssuesEvent": 1, 
  "CreateEvent": 15
 }, 
 {
  "lat": 35.3985008, 
  "WatchEvent": 2, 
  "lng": 127.937111, 
  "name": "SOUTH"
 }, 
 {
  "lat": 34.0501713, 
  "WatchEvent": 4, 
  "lng": -118.2419714, 
  "name": "L.A.", 
  "ForkEvent": 1
 }, 
 {
  "lat": 47.6038321, 
  "WatchEvent": 1, 
  "lng": -122.3300624, 
  "name": "SEATTLE WASHINGTON", 
  "ForkEvent": 1
 }, 
 {
  "lat": 29.5585712, 
  "lng": 106.5492822, 
  "name": "CHONGQING CHINA", 
  "CreateEvent": 1
 }, 
 {
  "name": "HANGZHOU, ZHEJIANG, CHINA", 
  "DeleteEvent": 3, 
  "IssueCommentEvent": 1, 
  "PushEvent": 10, 
  "lat": 30.2665643, 
  "WatchEvent": 3, 
  "lng": 120.149335, 
  "CreateEvent": 4
 }, 
 {
  "ForkEvent": 1, 
  "PushEvent": 15, 
  "name": "GUADALAJARA, MEXICO", 
  "lat": 20.676143, 
  "WatchEvent": 9, 
  "lng": -103.3469982, 
  "CreateEvent": 3
 }, 
 {
  "lat": 53.5415797, 
  "WatchEvent": 1, 
  "lng": -2.1147831, 
  "name": "OLDHAM, UK"
 }, 
 {
  "ForkEvent": 2, 
  "PullRequestEvent": 3, 
  "PushEvent": 7, 
  "name": "MD", 
  "CommitCommentEvent": 1, 
  "lat": 39.5162234, 
  "lng": -76.9382069, 
  "CreateEvent": 3
 }, 
 {
  "IssuesEvent": 1, 
  "ForkEvent": 2, 
  "PullRequestEvent": 2, 
  "IssueCommentEvent": 1, 
  "PushEvent": 60, 
  "name": "LYON", 
  "CommitCommentEvent": 1, 
  "lat": 45.7575958, 
  "WatchEvent": 2, 
  "lng": 4.8323239, 
  "GollumEvent": 2, 
  "CreateEvent": 5
 }, 
 {
  "lat": 42.9140501, 
  "lng": -72.3134868347058, 
  "name": "YALE UNIVERSITY '15", 
  "PushEvent": 2
 }, 
 {
  "ForkEvent": 3, 
  "PullRequestEvent": 2, 
  "IssueCommentEvent": 1, 
  "PushEvent": 8, 
  "name": "MA", 
  "DeleteEvent": 2, 
  "lat": 41.8932575, 
  "WatchEvent": 4, 
  "lng": 12.4830619, 
  "CreateEvent": 5
 }, 
 {
  "PublicEvent": 1, 
  "name": "ELKHART INDIANA", 
  "PullRequestEvent": 4, 
  "IssueCommentEvent": 7, 
  "PushEvent": 16, 
  "lat": 41.6012796, 
  "WatchEvent": 1, 
  "lng": -85.8590603, 
  "CreateEvent": 9
 }, 
 {
  "lat": 45.9896587, 
  "WatchEvent": 1, 
  "lng": -94.6113288, 
  "name": "MN"
 }, 
 {
  "lat": 39.7837304, 
  "WatchEvent": 6, 
  "lng": -100.4458825, 
  "name": "MI"
 }, 
 {
  "lat": 45.9911313, 
  "lng": 13.6316261, 
  "name": "WORLD, SLOVENIA", 
  "GollumEvent": 2
 }, 
 {
  "lat": 46.3234863, 
  "WatchEvent": 1, 
  "lng": -0.464725, 
  "name": "NIORT", 
  "ForkEvent": 1
 }, 
 {
  "name": "SAO PAULO, BRASIL", 
  "PullRequestEvent": 1, 
  "PushEvent": 2, 
  "lat": -21.9549806, 
  "WatchEvent": 5, 
  "lng": -49.0232348, 
  "ForkEvent": 3
 }, 
 {
  "lat": 48.754402, 
  "WatchEvent": 1, 
  "lng": -122.4788602, 
  "name": "BELLINGHAM, WASHINGTON"
 }, 
 {
  "lat": 22.5000485, 
  "WatchEvent": 8, 
  "lng": -100.0000375, 
  "name": "MX"
 }, 
 {
  "ForkEvent": 4, 
  "CreateEvent": 3, 
  "IssueCommentEvent": 4, 
  "PushEvent": 9, 
  "PullRequestEvent": 3, 
  "CommitCommentEvent": 1, 
  "lat": 38.882334, 
  "WatchEvent": 6, 
  "lng": -77.1710914, 
  "IssuesEvent": 10, 
  "name": "FALLS CHURCH, VA"
 }, 
 {
  "lat": 36.0694725, 
  "lng": -94.2054387225566, 
  "name": "FAYETTEVILLE, ARKANSAS", 
  "ForkEvent": 1
 }, 
 {
  "name": "BROOKLYN! NY", 
  "PullRequestEvent": 1, 
  "IssueCommentEvent": 1, 
  "PushEvent": 5, 
  "lat": 40.6501038, 
  "WatchEvent": 3, 
  "lng": -73.9495823
 }, 
 {
  "lat": -12.0778242, 
  "lng": -77.0958379145848, 
  "name": "SAN MIGUEL, LIMA", 
  "ForkEvent": 1
 }, 
 {
  "MemberEvent": 1, 
  "name": "SOROCABA - SP - BRASIL", 
  "DeleteEvent": 2, 
  "PushEvent": 39, 
  "ForkEvent": 1, 
  "lat": -23.501667, 
  "WatchEvent": 8, 
  "lng": -47.458056, 
  "GollumEvent": 5, 
  "CreateEvent": 10
 }, 
 {
  "name": "ATLANTA, GEORGIA, USA", 
  "PullRequestEvent": 2, 
  "IssueCommentEvent": 2, 
  "PushEvent": 3, 
  "ForkEvent": 2, 
  "lat": 33.7490987, 
  "WatchEvent": 18, 
  "lng": -84.3901849, 
  "CreateEvent": 3
 }, 
 {
  "name": "DUVALL, WA", 
  "PullRequestEvent": 2, 
  "IssueCommentEvent": 5, 
  "PushEvent": 5, 
  "lat": 47.7423219, 
  "lng": -121.9856782, 
  "IssuesEvent": 2
 }, 
 {
  "ForkEvent": 2, 
  "PushEvent": 5, 
  "name": "BOSTON,MA", 
  "lat": 42.3604823, 
  "WatchEvent": 4, 
  "lng": -71.0595678, 
  "CreateEvent": 1
 }, 
 {
  "ForkEvent": 2, 
  "PullRequestEvent": 4, 
  "PushEvent": 17, 
  "name": "\u98a8\u898b\u5b66\u5712", 
  "lat": null, 
  "WatchEvent": 7, 
  "lng": null, 
  "CreateEvent": 10
 }, 
 {
  "lat": 49.9486561, 
  "WatchEvent": 1, 
  "lng": 15.2681123, 
  "name": "KUTN\u00e1 HORA, CZECH REPUBLIC"
 }, 
 {
  "lat": 7.8971458, 
  "WatchEvent": 4, 
  "lng": -72.5080387, 
  "name": "CUCUTA, COLOMBIA", 
  "CreateEvent": 1
 }, 
 {
  "name": "CALGARY, CANADA", 
  "PullRequestEvent": 1, 
  "IssueCommentEvent": 1, 
  "PushEvent": 34, 
  "ForkEvent": 1, 
  "lat": 51.0529691, 
  "WatchEvent": 3, 
  "lng": -114.062545, 
  "IssuesEvent": 18, 
  "CreateEvent": 6
 }, 
 {
  "lat": 37.38270045, 
  "WatchEvent": 2, 
  "lng": -5.96259992700733, 
  "name": "SEVILLE (SPAIN)", 
  "PushEvent": 9
 }, 
 {
  "lat": 40.9025989, 
  "lng": -74.4070971, 
  "name": "BOONTON, NJ", 
  "PushEvent": 2
 }, 
 {
  "lat": 19.2451909, 
  "WatchEvent": 5, 
  "lng": -103.720828, 
  "name": "COLIMA, COLIMA, M\u00e9XICO", 
  "ForkEvent": 3
 }, 
 {
  "name": "KONSTANZ, GERMANY", 
  "PullRequestEvent": 1, 
  "PushEvent": 3, 
  "IssueCommentEvent": 5, 
  "lat": 47.659216, 
  "lng": 9.1750718, 
  "IssuesEvent": 2, 
  "CreateEvent": 2
 }, 
 {
  "name": "PALO ALTO, CALIFORNIA, USA", 
  "IssueCommentEvent": 1, 
  "lat": 37.442156, 
  "WatchEvent": 1, 
  "lng": -122.1634472, 
  "IssuesEvent": 1
 }, 
 {
  "name": "BELGRADE, SERBIA", 
  "PushEvent": 18, 
  "CommitCommentEvent": 1, 
  "lat": 44.8178787, 
  "WatchEvent": 7, 
  "lng": 20.4568089, 
  "GollumEvent": 5, 
  "CreateEvent": 2
 }, 
 {
  "name": "MELTON MOWBRAY, UK", 
  "CreateEvent": 1, 
  "PullRequestEvent": 1, 
  "PushEvent": 8, 
  "IssueCommentEvent": 16, 
  "lat": 52.7650367, 
  "WatchEvent": 1, 
  "lng": -0.8877779, 
  "IssuesEvent": 2, 
  "ForkEvent": 1
 }, 
 {
  "MemberEvent": 1, 
  "PullRequestReviewCommentEvent": 36, 
  "name": "SANTA BARBARA, CA", 
  "GollumEvent": 3, 
  "PullRequestEvent": 113, 
  "IssueCommentEvent": 47, 
  "PushEvent": 539, 
  "DeleteEvent": 15, 
  "CommitCommentEvent": 28, 
  "ForkEvent": 14, 
  "lat": 34.3999755, 
  "WatchEvent": 14, 
  "lng": -119.703022549307, 
  "IssuesEvent": 5, 
  "CreateEvent": 75
 }, 
 {
  "lat": null, 
  "lng": null, 
  "CreateEvent": 1, 
  "name": "UKRAINE, ZAPOROJYE", 
  "PushEvent": 4
 }, 
 {
  "lat": 52.2317679, 
  "WatchEvent": 18, 
  "lng": 21.0058010509235, 
  "name": "52.2318381, 21.0059946"
 }, 
 {
  "lat": 35.6651907, 
  "WatchEvent": 5, 
  "lng": 139.7278084, 
  "name": "JAPAN TOKYO SHIBUYA"
 }, 
 {
  "lat": 46.5329655, 
  "lng": 9.8693862, 
  "CreateEvent": 4, 
  "name": "CENTRAL ALPS", 
  "PushEvent": 7
 }, 
 {
  "name": "HOUSTON, TEXAS", 
  "IssueCommentEvent": 2, 
  "PushEvent": 4, 
  "lat": 29.5857815, 
  "WatchEvent": 1, 
  "lng": -95.2402893181026, 
  "IssuesEvent": 1, 
  "CreateEvent": 2
 }, 
 {
  "MemberEvent": 1, 
  "PublicEvent": 1, 
  "name": "BOLOGNA, ITALY", 
  "DeleteEvent": 5, 
  "IssueCommentEvent": 6, 
  "PushEvent": 58, 
  "PullRequestEvent": 1, 
  "ForkEvent": 3, 
  "lat": 44.4936714, 
  "WatchEvent": 19, 
  "CommitCommentEvent": 2, 
  "IssuesEvent": 2, 
  "lng": 11.3430347, 
  "CreateEvent": 13
 }, 
 {
  "lat": 22.54170505, 
  "WatchEvent": 6, 
  "lng": 88.3163717057693, 
  "name": "KOLKATA", 
  "PushEvent": 3
 }, 
 {
  "name": "CURITIBA, PR, BRAZIL", 
  "PullRequestEvent": 1, 
  "PushEvent": 5, 
  "lat": -25.4286927, 
  "lng": -49.272373, 
  "CreateEvent": 1
 }, 
 {
  "lat": 45.1613638, 
  "WatchEvent": 4, 
  "lng": 10.799208, 
  "name": "MANTOVA (ITALY)"
 }, 
 {
  "name": "TRICHY", 
  "PushEvent": 1, 
  "lat": 10.804973, 
  "WatchEvent": 1, 
  "lng": 78.686904, 
  "IssuesEvent": 1, 
  "CreateEvent": 1
 }, 
 {
  "lat": -6.8784148, 
  "lng": 107.5516299, 
  "ForkEvent": 1, 
  "name": "CIMAHI, INDONESIA", 
  "PushEvent": 3
 }, 
 {
  "name": "DORTMUND, GERMANY", 
  "PullRequestEvent": 11, 
  "IssueCommentEvent": 5, 
  "PushEvent": 20, 
  "DeleteEvent": 1, 
  "CommitCommentEvent": 1, 
  "lat": 51.5113709, 
  "WatchEvent": 29, 
  "lng": 7.4651736, 
  "IssuesEvent": 2, 
  "CreateEvent": 3
 }, 
 {
  "lat": null, 
  "WatchEvent": 1, 
  "lng": null, 
  "name": "RIO DE JANEIRO, BRAZIL, SOUTH AMERICA"
 }, 
 {
  "lat": 42.3750997, 
  "lng": -71.1056157, 
  "name": "CAMBRIDGE, MASSACHUSETTS", 
  "ForkEvent": 2
 }, 
 {
  "name": "EUGENE, OREGON", 
  "PullRequestEvent": 1, 
  "IssueCommentEvent": 3, 
  "PushEvent": 32, 
  "CommitCommentEvent": 1, 
  "lat": 44.0505054, 
  "lng": -123.0950506, 
  "CreateEvent": 3
 }, 
 {
  "lat": 37.4137536, 
  "lng": -79.1422464, 
  "name": "LYNCHBURG, VA", 
  "PushEvent": 11
 }, 
 {
  "ForkEvent": 3, 
  "PushEvent": 7, 
  "name": "FRANKLIN, MA 02038", 
  "lat": 42.0954546, 
  "WatchEvent": 3, 
  "lng": -71.4117121, 
  "GollumEvent": 1, 
  "CreateEvent": 1
 }, 
 {
  "lat": null, 
  "lng": null, 
  "ForkEvent": 1, 
  "name": "LEXEXA, KANSAS", 
  "PushEvent": 3
 }, 
 {
  "name": "TWIN CITIES, MN", 
  "PushEvent": 22, 
  "lat": 45.0955107, 
  "WatchEvent": 4, 
  "lng": -93.1861604, 
  "GollumEvent": 1, 
  "CreateEvent": 1
 }, 
 {
  "name": "BLOWMAGE", 
  "PullRequestEvent": 5, 
  "PushEvent": 6, 
  "IssueCommentEvent": 10, 
  "lat": null, 
  "WatchEvent": 1, 
  "lng": null, 
  "IssuesEvent": 1, 
  "GollumEvent": 1
 }, 
 {
  "lat": -23.681347, 
  "WatchEvent": 2, 
  "lng": -46.62052, 
  "name": "DIADEMA-SP"
 }, 
 {
  "PushEvent": 21, 
  "ForkEvent": 6, 
  "PullRequestEvent": 6, 
  "IssueCommentEvent": 17, 
  "name": "PORTLAND OR", 
  "CommitCommentEvent": 1, 
  "lat": 45.5202471, 
  "WatchEvent": 2, 
  "lng": -122.6741949, 
  "CreateEvent": 5
 }, 
 {
  "lat": -3.2096037, 
  "lng": -77.3261685, 
  "IssuesEvent": 2, 
  "name": "BRAS\u00edLIA/DF", 
  "IssueCommentEvent": 1
 }, 
 {
  "lat": 35.6713591, 
  "WatchEvent": 1, 
  "lng": 139.750841408373, 
  "name": "JAPAN TOKYO"
 }, 
 {
  "lat": 48.9061111, 
  "lng": -0.8105556, 
  "name": "THE DESERT", 
  "ForkEvent": 1
 }, 
 {
  "PushEvent": 5, 
  "ForkEvent": 2, 
  "PullRequestEvent": 1, 
  "IssueCommentEvent": 2, 
  "name": "ANCHORAGE, AK", 
  "lat": 61.218056, 
  "WatchEvent": 1, 
  "lng": -149.9002806, 
  "IssuesEvent": 2, 
  "CreateEvent": 2
 }, 
 {
  "lat": 41.8536402, 
  "WatchEvent": 11, 
  "lng": -88.1075800549882, 
  "name": "WHEATON, IL"
 }, 
 {
  "lat": null, 
  "WatchEvent": 2, 
  "lng": null, 
  "name": "PORTLAND, OR / VANCOUVER, WA", 
  "GollumEvent": 4
 }, 
 {
  "lat": 45.6617015, 
  "WatchEvent": 1, 
  "lng": 25.5963363093582, 
  "name": "BRASOV RO"
 }, 
 {
  "ForkEvent": 1, 
  "PushEvent": 4, 
  "name": "CHANTILLY", 
  "lat": 49.1939579, 
  "lng": 2.4632567, 
  "IssuesEvent": 9, 
  "CreateEvent": 1
 }, 
 {
  "lat": 50.0145517, 
  "lng": 8.3514488, 
  "name": "HOCHHEIM AM MAIN", 
  "IssueCommentEvent": 1
 }, 
 {
  "lat": -32.9595004, 
  "WatchEvent": 3, 
  "lng": -60.6615415, 
  "name": "ROSARIO"
 }, 
 {
  "lat": null, 
  "WatchEvent": 1, 
  "lng": null, 
  "name": "THE WORLD IS MY OFFICE"
 }, 
 {
  "name": "70115", 
  "PullRequestEvent": 7, 
  "IssueCommentEvent": 2, 
  "PushEvent": 14, 
  "DeleteEvent": 1, 
  "ForkEvent": 1, 
  "lat": 29.9277152534289, 
  "WatchEvent": 4, 
  "lng": -90.1021147436238, 
  "IssuesEvent": 1, 
  "CreateEvent": 3
 }, 
 {
  "lat": 36.7014631, 
  "lng": -118.7559974, 
  "name": "CALIFORNIA, US", 
  "PushEvent": 1
 }, 
 {
  "lat": 48.6230989, 
  "lng": -3.2057144, 
  "IssuesEvent": 1, 
  "name": "KERMOROC'H, FRANCE"
 }, 
 {
  "name": "ANHUI CHINA", 
  "IssueCommentEvent": 1, 
  "lat": 32.0, 
  "WatchEvent": 12, 
  "lng": 117.0, 
  "ForkEvent": 3
 }, 
 {
  "ForkEvent": 1, 
  "PushEvent": 8, 
  "name": "BORDEAUX, AQUITAINE, FRANCE", 
  "lat": 44.841225, 
  "WatchEvent": 30, 
  "lng": -0.5800364, 
  "IssuesEvent": 2, 
  "CreateEvent": 1
 }, 
 {
  "PullRequestReviewCommentEvent": 6, 
  "name": "94110", 
  "GollumEvent": 3, 
  "PullRequestEvent": 61, 
  "IssueCommentEvent": 217, 
  "PushEvent": 219, 
  "DeleteEvent": 5, 
  "CommitCommentEvent": 47, 
  "ForkEvent": 2, 
  "lat": 48.8028328855584, 
  "WatchEvent": 9, 
  "lng": 2.32831741025817, 
  "IssuesEvent": 15, 
  "CreateEvent": 16
 }, 
 {
  "lat": 41.4871888, 
  "lng": -81.6778691, 
  "CreateEvent": 1, 
  "name": "CLEVELAND, OH USA", 
  "PushEvent": 3
 }, 
 {
  "MemberEvent": 1, 
  "IssuesEvent": 4, 
  "ForkEvent": 17, 
  "PullRequestEvent": 2, 
  "IssueCommentEvent": 8, 
  "PushEvent": 154, 
  "name": "SANTIAGO, CHILE", 
  "DeleteEvent": 1, 
  "CommitCommentEvent": 1, 
  "lat": -33.4379935, 
  "WatchEvent": 55, 
  "lng": -70.6503976, 
  "GollumEvent": 9, 
  "CreateEvent": 18
 }, 
 {
  "lat": 38.2020774, 
  "lng": -79.0083646, 
  "CreateEvent": 1, 
  "name": "VERONA, VA", 
  "PushEvent": 34
 }, 
 {
  "lat": -23.5838777, 
  "WatchEvent": 1, 
  "lng": -46.6591771017036, 
  "name": "BRASIL, S\u00e3O PAULO"
 }, 
 {
  "name": "VINNITSA", 
  "PullRequestEvent": 1, 
  "PushEvent": 1, 
  "lat": 49.2320162, 
  "WatchEvent": 4, 
  "lng": 28.467975, 
  "CreateEvent": 1
 }, 
 {
  "lat": 33.2762256, 
  "WatchEvent": 2, 
  "lng": -87.0671165, 
  "name": "TUSCALOOSA ALABAMA"
 }, 
 {
  "lat": 26.1805978, 
  "lng": 91.753943, 
  "name": "GUWAHATI, ASSAM, INDIA", 
  "ForkEvent": 1
 }, 
 {
  "IssuesEvent": 1, 
  "ForkEvent": 4, 
  "PullRequestEvent": 3, 
  "IssueCommentEvent": 5, 
  "PushEvent": 64, 
  "lat": 56.1496278, 
  "WatchEvent": 8, 
  "lng": 10.2134046, 
  "CreateEvent": 2, 
  "name": "AARHUS, DENMARK"
 }, 
 {
  "lat": 40.634996, 
  "lng": -75.855491, 
  "name": "PHILLY, PA, USA", 
  "ForkEvent": 1
 }, 
 {
  "ForkEvent": 1, 
  "PullRequestEvent": 1, 
  "PushEvent": 4, 
  "lat": 39.1670396, 
  "lng": -86.5342881, 
  "name": "BLOOMINGTON, INDIANA"
 }, 
 {
  "lat": 51.5499223, 
  "lng": 46.0043889, 
  "name": "SARATOV", 
  "PushEvent": 5
 }, 
 {
  "lat": 40.6916081, 
  "lng": -75.2099866, 
  "IssuesEvent": 2, 
  "name": "EASTON"
 }, 
 {
  "lat": -20.1361733, 
  "lng": -44.881682, 
  "IssuesEvent": 1, 
  "name": "DIVIN\u00f3POLIS, MG, BRAZIL"
 }, 
 {
  "lat": null, 
  "WatchEvent": 1, 
  "lng": null, 
  "name": "PARIS (GMT +1)"
 }, 
 {
  "name": "THE NORTHEAST, USA", 
  "PullRequestEvent": 1, 
  "PushEvent": 2, 
  "IssueCommentEvent": 5, 
  "lat": 41.7370229, 
  "lng": -99.5873816, 
  "IssuesEvent": 2
 }, 
 {
  "lat": 21.1509884, 
  "WatchEvent": 2, 
  "lng": 79.0124496591974, 
  "name": "NAGPUR, INDIA"
 }, 
 {
  "lat": 51.5659426, 
  "WatchEvent": 1, 
  "lng": 0.0893196, 
  "name": "LEEDS/LONDON, BRITAIN"
 }, 
 {
  "PullRequestEvent": 1, 
  "lat": 33.5442781, 
  "lng": -84.2338093, 
  "name": "STOCKBRIDGE, GA", 
  "PushEvent": 1
 }, 
 {
  "lat": 48.2084671, 
  "WatchEvent": 2, 
  "lng": 16.3730908, 
  "name": "VIENNA,AUSTRIA"
 }, 
 {
  "lat": 44.7606441, 
  "lng": -85.6165301, 
  "CreateEvent": 3, 
  "name": "TRAVERSE CITY, MI", 
  "PushEvent": 48
 }, 
 {
  "MemberEvent": 1, 
  "name": "MENDOZA, ARGENTINA", 
  "PullRequestEvent": 1, 
  "IssueCommentEvent": 4, 
  "PushEvent": 16, 
  "ForkEvent": 1, 
  "lat": -34.8700721, 
  "WatchEvent": 2, 
  "lng": -68.5479966, 
  "CreateEvent": 2
 }, 
 {
  "ForkEvent": 1, 
  "PushEvent": 7, 
  "lat": -22.9190616, 
  "WatchEvent": 2, 
  "lng": -42.8191271, 
  "name": "MARIC\u00e1- RJ - BRAZIL"
 }, 
 {
  "lat": 53.42969955, 
  "WatchEvent": 11, 
  "lng": 14.5929033646712, 
  "name": "SZCZECIN, POLAND"
 }, 
 {
  "ForkEvent": 1, 
  "lat": 39.2949611, 
  "WatchEvent": 5, 
  "lng": 22.384792, 
  "CreateEvent": 2, 
  "name": "FARSALA, GR"
 }, 
 {
  "lat": 45.3834983, 
  "WatchEvent": 1, 
  "lng": -88.0409574, 
  "name": "MARINETTE, WI"
 }, 
 {
  "name": "FRANKLIN, TN", 
  "PushEvent": 1, 
  "lat": 35.0761938, 
  "WatchEvent": 1, 
  "lng": -85.9232121, 
  "ForkEvent": 1
 }, 
 {
  "MemberEvent": 1, 
  "name": "PALERMO, CABA", 
  "IssueCommentEvent": 1, 
  "PushEvent": 13, 
  "lat": null, 
  "lng": null, 
  "IssuesEvent": 8, 
  "CreateEvent": 1
 }, 
 {
  "lat": 51.5626308, 
  "WatchEvent": 2, 
  "lng": -9.4604371, 
  "name": "BALLYDEHOB, IRELAND"
 }, 
 {
  "lat": 47.5092938, 
  "lng": 7.6588333, 
  "IssuesEvent": 1, 
  "name": "SWITZERLAND, BL", 
  "IssueCommentEvent": 2
 }, 
 {
  "MemberEvent": 1, 
  "PushEvent": 45, 
  "ForkEvent": 4, 
  "IssueCommentEvent": 3, 
  "name": "UKRAINE, KHARKOV", 
  "lat": 50.06670545, 
  "WatchEvent": 29, 
  "lng": 36.1975345185745, 
  "IssuesEvent": 1, 
  "CreateEvent": 1
 }, 
 {
  "lat": 52.2319237, 
  "lng": 21.0067265, 
  "name": "WARSZAWA, PL", 
  "PushEvent": 1
 }, 
 {
  "ForkEvent": 1, 
  "PullRequestEvent": 1, 
  "PushEvent": 6, 
  "name": "MARIBOR", 
  "lat": 46.555628, 
  "WatchEvent": 1, 
  "lng": 15.64477, 
  "CreateEvent": 2
 }, 
 {
  "lat": -11.9493848, 
  "lng": -77.1290641617354, 
  "CreateEvent": 1, 
  "name": "CALLAO", 
  "PushEvent": 3
 }, 
 {
  "lat": 56.169453, 
  "WatchEvent": 1, 
  "lng": 9.5495141, 
  "name": "SILKEBORG, DENMARK", 
  "ForkEvent": 1
 }, 
 {
  "PullRequestReviewCommentEvent": 2, 
  "ForkEvent": 3, 
  "PullRequestEvent": 4, 
  "IssueCommentEvent": 25, 
  "PushEvent": 13, 
  "name": "DELMAR, NY", 
  "lat": 42.6220235, 
  "lng": -73.8326232, 
  "CreateEvent": 3
 }, 
 {
  "lat": 48.696771, 
  "lng": -122.9054625, 
  "IssuesEvent": 1, 
  "name": "EASTSOUND, WA", 
  "IssueCommentEvent": 1
 }, 
 {
  "MemberEvent": 1, 
  "PushEvent": 144, 
  "ForkEvent": 10, 
  "PullRequestEvent": 2, 
  "IssueCommentEvent": 7, 
  "name": "MIAMI, FL", 
  "CommitCommentEvent": 1, 
  "lat": 25.7742658, 
  "WatchEvent": 24, 
  "lng": -80.1936589, 
  "IssuesEvent": 1, 
  "CreateEvent": 11
 }, 
 {
  "lat": 45.4384143, 
  "WatchEvent": 2, 
  "lng": 12.318564, 
  "name": "VENEZIA"
 }, 
 {
  "MemberEvent": 1, 
  "name": "SOROCABA - SP / BRASIL", 
  "IssueCommentEvent": 1, 
  "PushEvent": 10, 
  "lat": -23.501667, 
  "WatchEvent": 3, 
  "lng": -47.458056, 
  "CreateEvent": 2
 }, 
 {
  "lat": -22.9238943, 
  "WatchEvent": 12, 
  "lng": -45.4616763, 
  "name": "PINDAMONHANGABA, S\u00e3O PAULO"
 }, 
 {
  "name": "WINTER PARK, FL", 
  "GollumEvent": 2, 
  "DeleteEvent": 1, 
  "PushEvent": 5, 
  "IssueCommentEvent": 1, 
  "ForkEvent": 1, 
  "lat": 28.600154, 
  "WatchEvent": 5, 
  "lng": -81.3427567241316, 
  "IssuesEvent": 3, 
  "CreateEvent": 2
 }, 
 {
  "lat": 5.4125234, 
  "WatchEvent": 1, 
  "lng": 100.319942, 
  "name": "SINGAPORE/MALAYSIA"
 }, 
 {
  "ForkEvent": 1, 
  "IssueCommentEvent": 3, 
  "PushEvent": 4, 
  "lat": 40.2113318, 
  "WatchEvent": 8, 
  "lng": -8.4291574, 
  "name": "COIMBRA, PORTUGAL"
 }, 
 {
  "lat": 22.32735, 
  "lng": 87.3241888565575, 
  "IssuesEvent": 1, 
  "name": "KHARAGPUR (INDIA)", 
  "IssueCommentEvent": 6
 }, 
 {
  "lat": 31.7735319, 
  "WatchEvent": 5, 
  "lng": 34.634367, 
  "name": "ISRAEL, ASHDOD"
 }, 
 {
  "lat": 51.2108548, 
  "WatchEvent": 1, 
  "lng": 4.3902059, 
  "name": "LEUVEN & ANTWERP / BELGIUM"
 }, 
 {
  "name": "GERMANY, SAARLAND", 
  "PullRequestEvent": 5, 
  "PushEvent": 8, 
  "IssueCommentEvent": 22, 
  "CommitCommentEvent": 2, 
  "lat": 49.35546605, 
  "lng": 7.23408729600718, 
  "IssuesEvent": 1
 }, 
 {
  "ForkEvent": 1, 
  "PushEvent": 23, 
  "name": "ZHENGZHOU, HENAN, CHINA", 
  "lat": 34.7591877, 
  "lng": 113.6524076, 
  "CreateEvent": 2
 }, 
 {
  "lat": 41.8759152, 
  "WatchEvent": 1, 
  "lng": -72.8012211, 
  "name": "SIMSBURY, CT"
 }, 
 {
  "lat": 43.285636, 
  "lng": -71.4672931, 
  "name": "LOUDON, NH", 
  "PushEvent": 19
 }, 
 {
  "name": "S\u00e3O PAULO - SP, BRAZIL", 
  "PushEvent": 2, 
  "lat": -23.5503279, 
  "WatchEvent": 8, 
  "lng": -46.6339647, 
  "CreateEvent": 1
 }, 
 {
  "ForkEvent": 2, 
  "PushEvent": 10, 
  "name": "HARTFORD, CT", 
  "lat": 41.765599, 
  "WatchEvent": 1, 
  "lng": -72.6905856293072, 
  "IssuesEvent": 1, 
  "CreateEvent": 1
 }, 
 {
  "lat": 34.9622812, 
  "WatchEvent": 4, 
  "lng": 138.3706451, 
  "name": "MIE,JAPAN"
 }, 
 {
  "MemberEvent": 2, 
  "name": "BERKELEY", 
  "GollumEvent": 3, 
  "DeleteEvent": 9, 
  "IssueCommentEvent": 8, 
  "PushEvent": 274, 
  "PullRequestEvent": 2, 
  "CommitCommentEvent": 5, 
  "ForkEvent": 2, 
  "lat": 37.769025, 
  "WatchEvent": 4, 
  "lng": -122.179173210734, 
  "IssuesEvent": 9, 
  "CreateEvent": 38
 }, 
 {
  "name": "WARWICK, UK", 
  "GollumEvent": 9, 
  "PullRequestEvent": 50, 
  "IssueCommentEvent": 69, 
  "PushEvent": 74, 
  "CommitCommentEvent": 4, 
  "ForkEvent": 2, 
  "lat": 52.2850815, 
  "WatchEvent": 7, 
  "lng": -1.5785412, 
  "IssuesEvent": 10, 
  "CreateEvent": 20
 }, 
 {
  "lat": 29.03853945, 
  "WatchEvent": 3, 
  "lng": -13.6367886799546, 
  "name": "LANZAROTE, CANARY ISLANDS", 
  "ForkEvent": 1
 }, 
 {
  "name": "ATX", 
  "DeleteEvent": 1, 
  "PushEvent": 40, 
  "lat": null, 
  "WatchEvent": 1, 
  "lng": null, 
  "CreateEvent": 22
 }, 
 {
  "name": "WEST LAFAYETTE, IN", 
  "DeleteEvent": 1, 
  "IssueCommentEvent": 3, 
  "PushEvent": 2, 
  "PullRequestEvent": 1, 
  "ForkEvent": 1, 
  "lat": 40.4258686, 
  "WatchEvent": 7, 
  "lng": -86.9080655, 
  "CreateEvent": 3
 }, 
 {
  "name": "FUZHOU, FUJIAN, CHINA", 
  "IssueCommentEvent": 1, 
  "lat": 26.0792078, 
  "WatchEvent": 2, 
  "lng": 119.2957071, 
  "IssuesEvent": 1
 }, 
 {
  "lat": 41.5595723, 
  "WatchEvent": 5, 
  "lng": -98.9805484, 
  "name": "THE VALLEY"
 }, 
 {
  "lat": -6.8939623, 
  "WatchEvent": 1, 
  "lng": 109.6731758, 
  "name": "PEKALONGAN INDONESIA"
 }, 
 {
  "PullRequestEvent": 1, 
  "lat": null, 
  "lng": null, 
  "name": "SF BABY!", 
  "PushEvent": 1
 }, 
 {
  "lat": 51.4102123, 
  "WatchEvent": 1, 
  "lng": -0.6736895, 
  "name": "ASCOT, UK"
 }, 
 {
  "lat": -5.79174835, 
  "lng": -35.2258035700512, 
  "name": "BRASIL, NATAL-RN", 
  "ForkEvent": 1
 }, 
 {
  "name": "COLUMBIA, MISSOURI", 
  "PullRequestEvent": 2, 
  "IssueCommentEvent": 5, 
  "PushEvent": 8, 
  "DeleteEvent": 1, 
  "ForkEvent": 2, 
  "lat": 38.951883, 
  "WatchEvent": 4, 
  "lng": -92.3337366, 
  "IssuesEvent": 3, 
  "CreateEvent": 2
 }, 
 {
  "lat": -23.9603686, 
  "WatchEvent": 2, 
  "lng": -46.3847024, 
  "name": "S\u00e3O VICENTE, BRAZIL"
 }, 
 {
  "lat": 46.4162724, 
  "WatchEvent": 1, 
  "lng": -117.0451581, 
  "name": "CLARKSTON, WA"
 }, 
 {
  "lat": null, 
  "lng": null, 
  "CreateEvent": 1, 
  "name": "WARSAW/KRAKOW POLAND", 
  "PushEvent": 3
 }, 
 {
  "lat": 37.2153307, 
  "lng": -93.2982521, 
  "name": "SPRINGFIELD, MISSOURI, USA", 
  "PushEvent": 1
 }, 
 {
  "PushEvent": 18, 
  "ForkEvent": 4, 
  "PullRequestEvent": 3, 
  "IssueCommentEvent": 7, 
  "name": "ST LOUIS, MISSOURI", 
  "lat": 38.6272733, 
  "WatchEvent": 8, 
  "lng": -90.1978889, 
  "IssuesEvent": 3, 
  "CreateEvent": 6
 }, 
 {
  "name": "CONNECTICUT, USA", 
  "GollumEvent": 1, 
  "PullRequestEvent": 7, 
  "IssueCommentEvent": 12, 
  "PushEvent": 132, 
  "DeleteEvent": 1, 
  "ForkEvent": 1, 
  "lat": 41.493929, 
  "WatchEvent": 3, 
  "CommitCommentEvent": 1, 
  "IssuesEvent": 9, 
  "lng": -72.5982114, 
  "CreateEvent": 8
 }, 
 {
  "lat": -9.9080087, 
  "lng": -63.0330295, 
  "CreateEvent": 2, 
  "name": "ARIQUEMES, ROND\u00f4NIA - BRASIL", 
  "PushEvent": 4
 }, 
 {
  "ForkEvent": 3, 
  "PullRequestEvent": 2, 
  "IssueCommentEvent": 2, 
  "PushEvent": 26, 
  "name": "KUALA LUMPUR, MALAYSIA", 
  "lat": 3.1570976, 
  "WatchEvent": 18, 
  "lng": 101.7009528, 
  "CreateEvent": 4
 }, 
 {
  "lat": 25.049097, 
  "lng": 102.7081773, 
  "ForkEvent": 1, 
  "name": "KUNMING CITY, CHINA", 
  "PushEvent": 2
 }, 
 {
  "lat": 50.44852675, 
  "WatchEvent": 1, 
  "lng": 30.5272671213269, 
  "name": "UKRAINE/KIEV"
 }, 
 {
  "lat": 34.008617, 
  "WatchEvent": 2, 
  "lng": -118.494754033795, 
  "name": "SANTA MONICA, CALIFORNIA", 
  "CreateEvent": 2
 }, 
 {
  "lat": 36.993541, 
  "lng": -121.892002051306, 
  "name": "APTOS, CA", 
  "IssueCommentEvent": 1
 }, 
 {
  "name": "LINZ, AUSTRIA", 
  "PullRequestEvent": 2, 
  "IssueCommentEvent": 14, 
  "PushEvent": 132, 
  "DeleteEvent": 1, 
  "ForkEvent": 2, 
  "lat": 46.8298662, 
  "WatchEvent": 9, 
  "CommitCommentEvent": 2, 
  "IssuesEvent": 9, 
  "lng": 12.7681269, 
  "CreateEvent": 7
 }, 
 {
  "name": "TERRASSA, SPAIN", 
  "PullRequestEvent": 5, 
  "IssueCommentEvent": 10, 
  "PushEvent": 13, 
  "CommitCommentEvent": 6, 
  "ForkEvent": 1, 
  "lat": 41.5693302, 
  "WatchEvent": 5, 
  "lng": 2.01345, 
  "IssuesEvent": 3, 
  "CreateEvent": 7
 }, 
 {
  "lat": -3.7304512, 
  "WatchEvent": 3, 
  "lng": -38.5217989, 
  "name": "FORTALEZA, BRAZIL"
 }, 
 {
  "name": "BARRINGTON, IL", 
  "PullRequestEvent": 1, 
  "IssueCommentEvent": 1, 
  "PushEvent": 1, 
  "lat": 42.1539141, 
  "lng": -88.1361888, 
  "ForkEvent": 2
 }, 
 {
  "lat": 35.000074, 
  "lng": 104.999927, 
  "IssuesEvent": 2, 
  "name": "SIENA", 
  "IssueCommentEvent": 5
 }, 
 {
  "PublicEvent": 1, 
  "PullRequestReviewCommentEvent": 1, 
  "name": "PERTH, WESTERN AUSTRALIA", 
  "GollumEvent": 1, 
  "PullRequestEvent": 21, 
  "IssueCommentEvent": 95, 
  "PushEvent": 136, 
  "DeleteEvent": 1, 
  "ForkEvent": 19, 
  "lat": -31.9527121, 
  "WatchEvent": 33, 
  "CommitCommentEvent": 1, 
  "IssuesEvent": 28, 
  "lng": 115.8604796, 
  "CreateEvent": 36
 },