[
 {
  "name": "NASHVILLE, TN", 
  "IssueCommentEvent": 1, 
  "lat": 36.1949274, 
  "WatchEvent": 2, 
  "lng": -86.7417714, 
  "IssuesEvent": 1
 }, 
 {
  "lat": 13.7000829, 
  "WatchEvent": 1, 
  "lng": -89.1490279, 
  "name": "EL SALVADOR, SOYAPANGO"
 }, 
 {
  "lat": 49.2499987, 
  "WatchEvent": 1, 
  "lng": -123.1333301, 
  "name": "VANCOUVER, BC."
 }, 
 {
  "lat": 57.7072326, 
  "WatchEvent": 1, 
  "lng": 11.9670171, 
  "name": "G\u00f6TEBORG"
 }, 
 {
  "lat": 53.166667, 
  "WatchEvent": 1, 
  "lng": -2.583333, 
  "name": "CHESHIRE, UK"
 }, 
 {
  "ForkEvent": 1, 
  "PullRequestEvent": 2, 
  "IssueCommentEvent": 5, 
  "lat": 40.7305991, 
  "WatchEvent": 4, 
  "lng": -73.9865812, 
  "IssuesEvent": 1, 
  "name": "NYC"
 }, 
 {
  "lat": 3.5899742, 
  "WatchEvent": 1, 
  "lng": 98.673867, 
  "name": "MEDAN-INDONESIA"
 }, 
 {
  "lat": 44.9391565, 
  "WatchEvent": 1, 
  "lng": -123.033121, 
  "name": "SALEM, OR"
 }, 
 {
  "lat": 39.952335, 
  "WatchEvent": 2, 
  "lng": -75.163789, 
  "name": "PHILADELPHIA"
 }, 
 {
  "lat": 5.4065013, 
  "WatchEvent": 1, 
  "lng": 100.2559077, 
  "name": "PENANG, MALAYSIA"
 }, 
 {
  "lat": 48.1535383, 
  "WatchEvent": 1, 
  "lng": 17.1096711, 
  "name": "BRATISLAVA, SLOVAKIA"
 }, 
 {
  "lat": 52.57554, 
  "lng": 6.61895, 
  "name": "HARDENBERG", 
  "ForkEvent": 1
 }, 
 {
  "lat": 14.6510101, 
  "WatchEvent": 1, 
  "lng": 121.0486031, 
  "name": "QUEZON CITY, PHILIPPINES"
 }, 
 {
  "lat": 45.1613638, 
  "WatchEvent": 1, 
  "lng": 10.799208, 
  "name": "MANTUA, ITALY"
 }, 
 {
  "lat": 39.6362062, 
  "WatchEvent": 1, 
  "lng": -105.321507315216, 
  "name": "EVERGREEN, CO"
 }, 
 {
  "lat": null, 
  "WatchEvent": 1, 
  "lng": null, 
  "name": "SILICON PRARIE"
 }, 
 {
  "lat": 39.9272459, 
  "WatchEvent": 2, 
  "lng": 32.8520044, 
  "name": "ANKARA"
 }, 
 {
  "lat": 51.2352672, 
  "WatchEvent": 1, 
  "lng": -0.5653624, 
  "name": "GUILDFORD, UNITED KINGDOM", 
  "ForkEvent": 1
 }, 
 {
  "lat": null, 
  "WatchEvent": 1, 
  "lng": null, 
  "name": "COPENHAGEN (DK), OSTRAVA (CZ)"
 }, 
 {
  "ForkEvent": 5, 
  "PullRequestEvent": 1, 
  "IssueCommentEvent": 23, 
  "CommitCommentEvent": 1, 
  "lat": 46.603354, 
  "WatchEvent": 21, 
  "lng": 1.8883335, 
  "IssuesEvent": 5, 
  "name": "FRANCE"
 }, 
 {
  "lat": 37.6399625, 
  "lng": -120.910842100962, 
  "name": "MODESTO, CA", 
  "ForkEvent": 1
 }, 
 {
  "lat": 39.952335, 
  "WatchEvent": 2, 
  "lng": -75.163789, 
  "name": "PHILADELPHIA, PA", 
  "IssueCommentEvent": 6
 }, 
 {
  "lat": 46.2017559, 
  "WatchEvent": 1, 
  "lng": 6.1466014, 
  "name": "GENEVA, SWITZERLAND"
 }, 
 {
  "lat": 31.22852055, 
  "WatchEvent": 2, 
  "lng": 121.402098662966, 
  "name": "CHINA, SHANG HAI"
 }, 
 {
  "lat": 11.1109839, 
  "WatchEvent": 1, 
  "lng": 122.6408636, 
  "name": "ASIA PACIFIC"
 }, 
 {
  "lat": 50.8465406, 
  "lng": 4.3516841, 
  "name": "BRUSSELS, BE", 
  "ForkEvent": 2
 }, 
 {
  "lat": 39.7589478, 
  "WatchEvent": 1, 
  "lng": -84.1916069, 
  "name": "DAYTON, OHIO"
 }, 
 {
  "lat": 39.0437192, 
  "WatchEvent": 1, 
  "lng": -77.4874899, 
  "name": "ASHBURN,VA"
 }, 
 {
  "lat": 41.1847613, 
  "lng": -73.1867321590959, 
  "name": "BRIDGEPORT, CT", 
  "IssueCommentEvent": 2
 }, 
 {
  "lat": 29.5857815, 
  "lng": -95.2402893181026, 
  "name": "HOUSTON TX", 
  "ForkEvent": 1
 }, 
 {
  "lat": 33.4146319, 
  "WatchEvent": 1, 
  "lng": -111.9093793, 
  "name": "TEMPE, AZ"
 }, 
 {
  "lat": -2.2010072, 
  "WatchEvent": 1, 
  "lng": -79.8818938, 
  "name": "GUAYAQUIL"
 }, 
 {
  "lat": 52.4813679, 
  "WatchEvent": 1, 
  "lng": -1.8980726, 
  "name": "BIRMINGHAM, UK", 
  "IssueCommentEvent": 3
 }, 
 {
  "ForkEvent": 1, 
  "IssueCommentEvent": 1, 
  "lat": 28.5421175, 
  "WatchEvent": 3, 
  "lng": -81.3790462, 
  "name": "ORLANDO, FL"
 }, 
 {
  "lat": 44.9772995, 
  "WatchEvent": 1, 
  "lng": -93.2654692, 
  "name": "MINNEAPOLIS, MINNESOTA, USA"
 }, 
 {
  "lat": 21.0292095, 
  "lng": 105.85247, 
  "IssuesEvent": 1, 
  "name": "HA NOI, VIET NAM"
 }, 
 {
  "ForkEvent": 2, 
  "IssueCommentEvent": 7, 
  "lat": 48.8565056, 
  "WatchEvent": 11, 
  "lng": 2.3521334, 
  "IssuesEvent": 4, 
  "name": "PARIS"
 }, 
 {
  "lat": 48.6928048, 
  "WatchEvent": 1, 
  "lng": 6.1838123, 
  "name": "NANCY, FR"
 }, 
 {
  "lat": 43.1531421, 
  "lng": -70.8000557, 
  "name": "ELIOT, MAINE", 
  "ForkEvent": 1
 }, 
 {
  "lat": null, 
  "lng": null, 
  "CommitCommentEvent": 1, 
  "name": "LOCALHOST", 
  "IssueCommentEvent": 1
 }, 
 {
  "lat": 35.0185804, 
  "WatchEvent": 1, 
  "lng": 135.763835, 
  "name": "KYOTO, JAPAN"
 }, 
 {
  "lat": 34.1683386, 
  "WatchEvent": 1, 
  "lng": -118.6059197, 
  "name": "WOODLAND HILLS, CA"
 }, 
 {
  "lat": 26.26569405, 
  "WatchEvent": 1, 
  "lng": -80.2653395734081, 
  "name": "CORAL SPRINGS, FL"
 }, 
 {
  "lat": null, 
  "WatchEvent": 1, 
  "lng": null, 
  "name": "HENGYANG CITY, HUNAN PROVINCE, CHINA"
 }, 
 {
  "lat": 40.5883246, 
  "lng": -75.5640246, 
  "name": "LEHIGH VALLEY, PA", 
  "ForkEvent": 1
 }, 
 {
  "lat": -22.9238943, 
  "WatchEvent": 1, 
  "lng": -45.4616763, 
  "name": "PINDAMONHANGABA, S\u00e3O PAULO"
 }, 
 {
  "lat": 48.1535383, 
  "lng": 17.1096711, 
  "name": "BRATISLAVA, SLOVAK REPUBLIC", 
  "ForkEvent": 1
 }, 
 {
  "lat": 22.5000485, 
  "WatchEvent": 2, 
  "lng": -100.0000375, 
  "IssuesEvent": 1, 
  "name": "MEXICO"
 }, 
 {
  "lat": 33.7458511, 
  "lng": -117.826166, 
  "name": "TUSTIN, CA", 
  "IssueCommentEvent": 1
 }, 
 {
  "lat": 37.442156, 
  "lng": -122.1634472, 
  "name": "PALO ALTO, CALIFORNIA", 
  "IssueCommentEvent": 1
 }, 
 {
  "lat": 52.5198535, 
  "lng": 13.4385964, 
  "name": "BERLIN, DE", 
  "IssueCommentEvent": 1
 }, 
 {
  "lat": 42.2681569, 
  "WatchEvent": 1, 
  "lng": -83.7312291, 
  "name": "ANN ARBOR, MICHIGAN"
 }, 
 {
  "lat": 51.5072759, 
  "WatchEvent": 1, 
  "lng": -0.1276597, 
  "name": "LONDON, GB"
 }, 
 {
  "lat": 54.3482259, 
  "WatchEvent": 1, 
  "lng": 18.6542888, 
  "name": "GDA\u0144SK"
 }, 
 {
  "lat": 45.3543692, 
  "WatchEvent": 1, 
  "lng": 36.4546096, 
  "name": "KERCH"
 }, 
 {
  "lat": 40.8255611, 
  "lng": 32.8231032, 
  "name": "\u0130STANBUL/KAD\u0131K\u00f6Y", 
  "ForkEvent": 1
 }, 
 {
  "lat": 37.270973, 
  "WatchEvent": 1, 
  "lng": -79.9414313, 
  "name": "ROANOKE, VA"
 }, 
 {
  "lat": 7.01667, 
  "WatchEvent": 1, 
  "lng": 37.73333, 
  "name": "DIDU"
 }, 
 {
  "lat": null, 
  "WatchEvent": 1, 
  "lng": null, 
  "name": "KYIV, UKRIANE"
 }, 
 {
  "lat": 1.4865259, 
  "WatchEvent": 1, 
  "lng": -75.7243762, 
  "name": "MORELIA"
 }, 
 {
  "ForkEvent": 3, 
  "PullRequestEvent": 2, 
  "IssueCommentEvent": 7, 
  "lat": 42.6384261, 
  "WatchEvent": 13, 
  "lng": 12.674297, 
  "name": "ITALY"
 }, 
 {
  "lat": 49.8349139, 
  "WatchEvent": 1, 
  "lng": 18.2820084, 
  "name": "OSTRAVA"
 }, 
 {
  "lat": 38.4840756, 
  "lng": -121.0740108, 
  "name": "SACRAMENTO, CA", 
  "ForkEvent": 2
 }, 
 {
  "lat": 32.3018217, 
  "WatchEvent": 1, 
  "lng": -64.7603583, 
  "name": "BERMUDA"
 }, 
 {
  "lat": -38.0072872, 
  "lng": -57.5595802, 
  "name": "MAR DEL PLATA, ARGENTINA", 
  "ForkEvent": 1
 }, 
 {
  "lat": 23.1229013, 
  "WatchEvent": 1, 
  "lng": 113.2529963, 
  "name": "GUANGZHOU,CHINA", 
  "ForkEvent": 1
 }, 
 {
  "lat": null, 
  "WatchEvent": 1, 
  "lng": null, 
  "name": "BEIJINGCHINA", 
  "ForkEvent": 1
 }, 
 {
  "lat": 49.9999952, 
  "WatchEvent": 1, 
  "lng": 8.2710237, 
  "name": "MAINZ"
 }, 
 {
  "lat": 36.145204, 
  "lng": -115.1611806, 
  "name": "LAS VEGAS, NV", 
  "IssueCommentEvent": 2
 }, 
 {
  "lat": 31.2253441, 
  "WatchEvent": 7, 
  "lng": 121.4888922, 
  "name": "SHANGHAI CHINA", 
  "ForkEvent": 1
 }, 
 {
  "lat": -31.9519837, 
  "WatchEvent": 1, 
  "lng": 150.5101689, 
  "name": "NSW, AUSTRALIA"
 }, 
 {
  "lat": 51.4020055, 
  "lng": -1.3236425, 
  "IssuesEvent": 2, 
  "name": "NEWBURY, BERKSHIRE - UK", 
  "IssueCommentEvent": 3
 }, 
 {
  "lat": 39.7578465, 
  "WatchEvent": 1, 
  "lng": -121.825710737511, 
  "name": "CHICO, CA", 
  "IssueCommentEvent": 1
 }, 
 {
  "lat": 40.4058233, 
  "WatchEvent": 2, 
  "lng": -3.7791084, 
  "name": "LOS ANGELES AREA"
 }, 
 {
  "lat": 41.21607745, 
  "WatchEvent": 1, 
  "lng": -112.008048404781, 
  "name": "OGDEN, UT"
 }, 
 {
  "lat": 49.8158683, 
  "WatchEvent": 1, 
  "lng": 6.1296751, 
  "name": "LU"
 }, 
 {
  "lat": 48.8521015, 
  "lng": 2.3374937, 
  "name": "TOURS/PARIS - FRANCE", 
  "ForkEvent": 1
 }, 
 {
  "lat": 41.4871888, 
  "WatchEvent": 1, 
  "lng": -81.6778691, 
  "name": "CLEVELAND, OHIO USA"
 }, 
 {
  "lat": 44.5299412, 
  "WatchEvent": 1, 
  "lng": -88.0248317, 
  "name": "GREEN BAY WI"
 }, 
 {
  "lat": 37.5710824, 
  "WatchEvent": 1, 
  "lng": 126.9953036, 
  "name": "SEOUL, REPUBLIC OF KOREA"
 }, 
 {
  "lat": 35.6800712, 
  "WatchEvent": 1, 
  "lng": 139.7685224, 
  "name": "TOKYO/JAPAN", 
  "ForkEvent": 1
 }, 
 {
  "lat": null, 
  "lng": null, 
  "IssuesEvent": 1, 
  "name": "SAN FRANCISILLY", 
  "IssueCommentEvent": 3
 }, 
 {
  "lat": 51.3797988, 
  "WatchEvent": 1, 
  "lng": 5.5778955, 
  "name": "HEEZE, THE NETHERLANDS"
 }, 
 {
  "ForkEvent": 2, 
  "PullRequestEvent": 2, 
  "IssueCommentEvent": 3, 
  "lat": 35.3314525, 
  "WatchEvent": 1, 
  "lng": -80.9398554230769, 
  "name": "CHARLOTTE, NC"
 }, 
 {
  "lat": 41.6813875, 
  "WatchEvent": 1, 
  "lng": -72.9407654616067, 
  "name": "BRISTOL, CT"
 }, 
 {
  "lat": 36.7473114, 
  "lng": -95.9808179, 
  "IssuesEvent": 1, 
  "name": "BARTLESVILLE, OK"
 }, 
 {
  "lat": 40.4416941, 
  "WatchEvent": 5, 
  "lng": -79.9900861, 
  "name": "PITTSBURGH, PA", 
  "IssueCommentEvent": 1
 }, 
 {
  "lat": 48.1372719, 
  "IssueCommentEvent": 1, 
  "lng": 11.5754815, 
  "name": "MUNICH, GERMANY", 
  "ForkEvent": 1
 }, 
 {
  "lat": 37.5710824, 
  "lng": 126.9953036, 
  "name": "SEOUL. KOREA", 
  "ForkEvent": 1
 }, 
 {
  "lat": 51.1668572, 
  "lng": 6.41270225823657, 
  "name": "MOENCHENGLADBACH, GERMANY", 
  "IssueCommentEvent": 1
 }, 
 {
  "lat": 17.4020214, 
  "WatchEvent": 3, 
  "lng": 78.4584862543268, 
  "name": "HYDERABAD", 
  "IssueCommentEvent": 2
 }, 
 {
  "lat": 37.7647993, 
  "WatchEvent": 1, 
  "lng": -122.4629897, 
  "name": "SF, CA", 
  "IssueCommentEvent": 1
 }, 
 {
  "lat": 43.715925, 
  "WatchEvent": 1, 
  "lng": 10.4018984, 
  "name": "PISA, ITALY"
 }, 
 {
  "lat": 51.588785, 
  "WatchEvent": 1, 
  "lng": 4.7760206, 
  "name": "BREDA, THE NETHERLANDS"
 }, 
 {
  "ForkEvent": 1, 
  "IssueCommentEvent": 1, 
  "lat": 60.5000209, 
  "WatchEvent": 3, 
  "lng": 9.0999715, 
  "IssuesEvent": 2, 
  "name": "NORWAY"
 }, 
 {
  "lat": 33.596439, 
  "lng": -7.6179071, 
  "name": "CASABLANCA MOROCCO", 
  "ForkEvent": 1
 }, 
 {
  "lat": 49.99026, 
  "lng": 36.2303797, 
  "name": "KHARKOV", 
  "ForkEvent": 1
 }, 
 {
  "lat": 51.760848, 
  "WatchEvent": 1, 
  "lng": -0.5647876, 
  "name": "BERKHAMSTED, UK"
 }, 
 {
  "lat": 39.9272459, 
  "WatchEvent": 1, 
  "lng": 32.8520044, 
  "name": "ANKARA/TURKEY"
 }, 
 {
  "lat": 39.55773285, 
  "WatchEvent": 2, 
  "lng": -0.299777427158372, 
  "name": "VALENCIA"
 }, 
 {
  "name": "AUSTRALIA", 
  "PullRequestEvent": 1, 
  "IssueCommentEvent": 4, 
  "lat": -27.2692649, 
  "WatchEvent": 6, 
  "lng": 136.1048783, 
  "ForkEvent": 5
 }, 
 {
  "lat": 37.5710824, 
  "WatchEvent": 2, 
  "lng": 126.9953036, 
  "name": "SEOUL, SOUTH KOREA", 
  "ForkEvent": 1
 }, 
 {
  "lat": 46.9970635, 
  "IssueCommentEvent": 1, 
  "lng": -120.5451223, 
  "name": "ELLENSBURG WA", 
  "ForkEvent": 1
 }, 
 {
  "lat": 34.0211224, 
  "WatchEvent": 1, 
  "lng": -118.3964665, 
  "name": "CULVER CITY, CA"
 }, 
 {
  "lat": 44.7100112, 
  "lng": -75.51863, 
  "name": "PRESCOTT, ONTARIO", 
  "IssueCommentEvent": 3
 }, 
 {
  "lat": 52.79655485, 
  "lng": -0.672180710937183, 
  "name": "EAST MIDLANDS", 
  "ForkEvent": 1
 }, 
 {
  "lat": 49.2499987, 
  "WatchEvent": 2, 
  "lng": -123.1333301, 
  "name": "VANCOUVER, CANADA", 
  "ForkEvent": 2
 }, 
 {
  "lat": 37.2295733, 
  "lng": -80.4139393, 
  "name": "BLACKSBURG, VA, USA", 
  "IssueCommentEvent": 2
 }, 
 {
  "ForkEvent": 4, 
  "PullRequestEvent": 1, 
  "IssueCommentEvent": 9, 
  "lat": 1.2906296, 
  "WatchEvent": 10, 
  "lng": 103.8528342, 
  "name": "SINGAPORE"
 }, 
 {
  "lat": 37.5318804, 
  "lng": -122.2480219, 
  "name": "REDWOOD SHORES, CA", 
  "IssueCommentEvent": 1
 }, 
 {
  "lat": 37.7884969, 
  "WatchEvent": 2, 
  "lng": -122.3558473, 
  "name": "BAY AREA", 
  "IssueCommentEvent": 2
 }, 
 {
  "name": "OAKLAND, CA", 
  "IssueCommentEvent": 2, 
  "lat": 37.8043808, 
  "WatchEvent": 2, 
  "lng": -122.2708166, 
  "IssuesEvent": 2, 
  "ForkEvent": 2
 }, 
 {
  "lat": 31.2253441, 
  "WatchEvent": 1, 
  "lng": 121.4888922, 
  "name": "SHANG HAI", 
  "ForkEvent": 1
 }, 
 {
  "lat": 36.0726355, 
  "WatchEvent": 1, 
  "lng": -79.7919754, 
  "name": "GREENSBORO, NORTH CAROLINA, USA"
 }, 
 {
  "lat": 30.7482172, 
  "lng": 120.7512059, 
  "name": "JIAXING,CHINA", 
  "ForkEvent": 1
 }, 
 {
  "lat": null, 
  "lng": null, 
  "name": "SHEN ZHEN,GUANG DONG", 
  "ForkEvent": 1
 }, 
 {
  "lat": 35.284448, 
  "lng": -120.671191, 
  "name": "MOUNTAIN VIEW, CA; SAN LUIS OBISPO, CA", 
  "IssueCommentEvent": 1
 }, 
 {
  "lat": 35.6639142, 
  "WatchEvent": 1, 
  "lng": 139.6979269, 
  "name": "SHIBUYA-KU, TOKYO"
 }, 
 {
  "lat": 38.6272733, 
  "lng": -90.1978889, 
  "name": "SAINT LOUIS, MO", 
  "ForkEvent": 1
 }, 
 {
  "lat": -41.3116998, 
  "WatchEvent": 1, 
  "lng": 174.9746507, 
  "name": "NEW ZEALAND", 
  "ForkEvent": 1
 }, 
 {
  "lat": -2.2010072, 
  "WatchEvent": 1, 
  "lng": -79.8818938, 
  "name": "GUAYAQUIL, ECUADOR"
 }, 
 {
  "PullRequestEvent": 3, 
  "lat": 26.9297836, 
  "lng": -82.0453664, 
  "name": "PUNTA GORDA, FLORIDA", 
  "IssueCommentEvent": 3
 }, 
 {
  "lat": -34.612869, 
  "WatchEvent": 8, 
  "lng": -58.4459789, 
  "name": "BUENOS AIRES, ARGENTINA", 
  "IssueCommentEvent": 4
 }, 
 {
  "lat": 10.3090298, 
  "lng": 123.8930839, 
  "name": "CEBU CITY, PHILIPPINES", 
  "ForkEvent": 1
 }, 
 {
  "lat": 34.486524, 
  "lng": 126.26361, 
  "name": "JINDO, SOUTH KOREA", 
  "ForkEvent": 1
 }, 
 {
  "lat": 1.4419683, 
  "WatchEvent": 1, 
  "lng": 38.4313975, 
  "name": "KENYA"
 }, 
 {
  "lat": 53.1389753, 
  "WatchEvent": 1, 
  "lng": 8.2146017, 
  "name": "OLDENBURG/GERMANY"
 }, 
 {
  "lat": 37.9841493, 
  "WatchEvent": 3, 
  "lng": 23.7279843, 
  "name": "ATHENS, GREECE"
 }, 
 {
  "name": "S\u00e3O PAULO - SP - BRAZIL", 
  "IssueCommentEvent": 1, 
  "lat": -23.5503279, 
  "lng": -46.6339647, 
  "IssuesEvent": 2, 
  "ForkEvent": 1
 }, 
 {
  "lat": null, 
  "WatchEvent": 1, 
  "lng": null, 
  "name": "HTTP://COPI.RU/96733/AVATAR.JPG"
 }, 
 {
  "lat": 44.6484246, 
  "WatchEvent": 1, 
  "lng": -63.5749724, 
  "name": "HALIFAX, NS"
 }, 
 {
  "lat": 55.644111, 
  "lng": 12.4217135, 
  "PullRequestReviewCommentEvent": 1, 
  "name": "BR\u00f8NDBY, COPENHAGEN", 
  "IssueCommentEvent": 1
 }, 
 {
  "lat": 37.5710824, 
  "WatchEvent": 3, 
  "lng": 126.9953036, 
  "name": "SEOUL"
 }, 
 {
  "lat": 52.2378498, 
  "WatchEvent": 1, 
  "lng": 5.53445746584715, 
  "name": "NEDERLAND", 
  "ForkEvent": 1
 }, 
 {
  "lat": 35.0185804, 
  "WatchEvent": 1, 
  "lng": 135.763835, 
  "name": "KYOTO"
 }, 
 {
  "lat": 40.1105875, 
  "WatchEvent": 2, 
  "lng": -88.2072697, 
  "name": "URBANA"
 }, 
 {
  "lat": 33.7490987, 
  "WatchEvent": 1, 
  "lng": -84.3901849, 
  "name": "ATLANTA"
 }, 
 {
  "name": "SEATTLE", 
  "IssueCommentEvent": 2, 
  "lat": 47.6038321, 
  "WatchEvent": 5, 
  "lng": -122.3300624, 
  "ForkEvent": 2
 }, 
 {
  "lat": 30.2665643, 
  "WatchEvent": 1, 
  "lng": 120.149335, 
  "name": "HANGZHOU ZHEJIANG CHINA"
 }, 
 {
  "lat": 51.8251994, 
  "WatchEvent": 1, 
  "lng": 4.4177792, 
  "name": "OUD-BEIJERLAND"
 }, 
 {
  "lat": 50.9206638, 
  "lng": 3.4485632, 
  "IssuesEvent": 1, 
  "name": "ZULTE"
 }, 
 {
  "lat": 54.5164982, 
  "WatchEvent": 1, 
  "lng": 18.5402738, 
  "name": "GDYNIA, PL"
 }, 
 {
  "lat": 33.4709714, 
  "lng": -81.9748429, 
  "name": "AUGUSTA, GA", 
  "ForkEvent": 1
 }, 
 {
  "lat": 40.7305991, 
  "lng": -73.9865812, 
  "name": "NEW YORK, NEW YORK", 
  "IssueCommentEvent": 1
 }, 
 {
  "ForkEvent": 1, 
  "IssueCommentEvent": 2, 
  "lat": 51.5072759, 
  "WatchEvent": 3, 
  "lng": -0.1276597, 
  "name": "LONDON, ENGLAND"
 }, 
 {
  "lat": 51.62124, 
  "WatchEvent": 1, 
  "lng": 17.14484, 
  "name": "DUBIN"
 }, 
 {
  "lat": 42.7653662, 
  "lng": -71.467566, 
  "name": "NASHUA, NH", 
  "ForkEvent": 1
 }, 
 {
  "name": "EUGENE, OR", 
  "CommitCommentEvent": 1, 
  "lat": 44.0505054, 
  "WatchEvent": 1, 
  "lng": -123.0950506, 
  "IssuesEvent": 1, 
  "ForkEvent": 1
 }, 
 {
  "lat": 29.651907, 
  "WatchEvent": 2, 
  "lng": -82.3247976, 
  "name": "GAINESVILLE, FL"
 }, 
 {
  "lat": -23.5503279, 
  "lng": -46.6339647, 
  "name": "S\u00e3O PAULO/SP - BRASIL", 
  "ForkEvent": 1
 }, 
 {
  "lat": 45.8106805, 
  "lng": 9.0863028, 
  "name": "COMO, ITALY", 
  "ForkEvent": 1
 }, 
 {
  "lat": 37.6230195, 
  "WatchEvent": 1, 
  "lng": -122.428982086872, 
  "name": "SAN BRUNO, CA"
 }, 
 {
  "lat": 30.1968545, 
  "WatchEvent": 1, 
  "lng": -97.5975533560703, 
  "name": "AUSTIN"
 }, 
 {
  "lat": 57.9935439, 
  "lng": 56.2299431, 
  "name": "RUSSIA, PERM", 
  "ForkEvent": 1
 }, 
 {
  "lat": 40.036202, 
  "WatchEvent": 1, 
  "lng": -75.5138959, 
  "name": "MALVERN, PA"
 }, 
 {
  "lat": 35.6800712, 
  "WatchEvent": 1, 
  "lng": 139.7685224, 
  "name": "TOKYO JAPAN"
 }, 
 {
  "lat": 10.7827445, 
  "WatchEvent": 2, 
  "lng": 106.6948984, 
  "name": "HO CHI MINH CITY, VIETNAM", 
  "ForkEvent": 2
 }, 
 {
  "ForkEvent": 2, 
  "IssueCommentEvent": 3, 
  "lat": -22.2752762, 
  "WatchEvent": 1, 
  "lng": -42.419415, 
  "name": "RIO DE JANEIRO"
 }, 
 {
  "name": "GOTHENBURG, SWEDEN", 
  "PullRequestEvent": 3, 
  "IssueCommentEvent": 1, 
  "CommitCommentEvent": 1, 
  "lat": 57.7072326, 
  "lng": 11.9670171
 }, 
 {
  "lat": 47.9027336, 
  "WatchEvent": 1, 
  "lng": 1.9086066, 
  "name": "ORL\u00e9ANS, FRANCE"
 }, 
 {
  "lat": 34.008617, 
  "WatchEvent": 1, 
  "lng": -118.494754033795, 
  "name": "SANTA MONICA"
 }, 
 {
  "lat": 41.9962268, 
  "WatchEvent": 1, 
  "lng": 21.4317955, 
  "name": "SKOPJE, MACEDONIA"
 }, 
 {
  "lat": 51.9035099, 
  "WatchEvent": 1, 
  "lng": -0.2013368, 
  "name": "STEVENAGE, ENGLAND"
 }, 
 {
  "lat": 41.8994745, 
  "WatchEvent": 1, 
  "lng": -87.9403418, 
  "name": "ELMHURST, ILLINOIS"
 }, 
 {
  "lat": 49.8158683, 
  "WatchEvent": 1, 
  "lng": 6.1296751, 
  "name": "LUXEMBOURG", 
  "ForkEvent": 1
 }, 
 {
  "lat": 41.0170578, 
  "WatchEvent": 1, 
  "lng": 28.9855676, 
  "name": "\u0130STANBUL"
 }, 
 {
  "lat": 5.3360038, 
  "IssueCommentEvent": 1, 
  "lng": -4.0270019, 
  "name": "ABIDJAN, C\u00f4TE D'IVOIRE", 
  "ForkEvent": 1
 }, 
 {
  "lat": 23.1397941, 
  "WatchEvent": 1, 
  "lng": 113.2817601, 
  "name": "GZ,CHINA"
 }, 
 {
  "lat": 48.754402, 
  "WatchEvent": 1, 
  "lng": -122.4788602, 
  "name": "BELLINGHAM, WA"
 }, 
 {
  "lat": 56.1621073, 
  "WatchEvent": 1, 
  "lng": 15.5866422, 
  "name": "KARLSKRONA, SWEDEN"
 }, 
 {
  "lat": 42.2836393, 
  "lng": -71.346996, 
  "name": "NATICK, MA USA", 
  "IssueCommentEvent": 1
 }, 
 {
  "lat": 43.6529206, 
  "WatchEvent": 3, 
  "lng": -79.3849008, 
  "name": "TORONTO, ON"
 }, 
 {
  "lat": 37.7884969, 
  "WatchEvent": 1, 
  "lng": -122.3558473, 
  "name": "SAN FRANCISCO/BAY AREA"
 }, 
 {
  "lat": 51.1263706, 
  "WatchEvent": 1, 
  "lng": 16.9780831265633, 
  "name": "WROC\u0142AW/POLAND"
 }, 
 {
  "lat": 37.894375, 
  "WatchEvent": 2, 
  "lng": -122.036438810635, 
  "name": "WALNUT CREEK, CA", 
  "ForkEvent": 1
 }, 
 {
  "lat": 14.5906074, 
  "lng": 120.9799013, 
  "name": "MANILA, PHILIPPINES", 
  "IssueCommentEvent": 1
 }, 
 {
  "lat": 30.4960087, 
  "WatchEvent": 1, 
  "lng": 114.1582859, 
  "name": "CHINA HUBEI,WUHAN"
 }, 
 {
  "lat": 43.7009358, 
  "WatchEvent": 1, 
  "lng": 7.2683912, 
  "IssuesEvent": 1, 
  "name": "NICE"
 }, 
 {
  "PullRequestEvent": 1, 
  "lat": -30.0330556, 
  "lng": -51.23, 
  "name": "PORTO ALEGRE, RS", 
  "IssueCommentEvent": 1
 }, 
 {
  "lat": 40.2253569, 
  "WatchEvent": 2, 
  "lng": -82.6881395, 
  "name": "OHIO, USA"
 }, 
 {
  "lat": 29.8826436, 
  "WatchEvent": 1, 
  "lng": -97.9405828, 
  "name": "SAN MARCOS, TX"
 }, 
 {
  "lat": 32.03805805, 
  "WatchEvent": 1, 
  "lng": 118.84742796689, 
  "name": "CHINA NAN JING"
 }, 
 {
  "lat": 40.3768954, 
  "lng": -111.7957645, 
  "name": "AMERICAN FORK, UT", 
  "IssueCommentEvent": 1
 }, 
 {
  "lat": -5.0896403, 
  "WatchEvent": 1, 
  "lng": -42.809588, 
  "name": "TERESINA, BRASIL"
 }, 
 {
  "lat": 37.2333645, 
  "lng": -121.947273077603, 
  "name": "LOS GATOS", 
  "IssueCommentEvent": 1
 }, 
 {
  "lat": 44.7677424, 
  "WatchEvent": 1, 
  "lng": -93.2777226, 
  "name": "BURNSVILLE"
 }, 
 {
  "lat": 58.0149643, 
  "lng": 56.2467244, 
  "name": "PERM", 
  "ForkEvent": 1
 }, 
 {
  "lat": 52.2319237, 
  "WatchEvent": 1, 
  "lng": 21.0067265, 
  "name": "WARSAW, POLAND", 
  "ForkEvent": 1
 }, 
 {
  "lat": -3.7304512, 
  "WatchEvent": 1, 
  "lng": -38.5217989, 
  "name": "FORTALEZA-CE, BRASIL"
 }, 
 {
  "lat": -6.8699697, 
  "WatchEvent": 1, 
  "lng": -75.0458515, 
  "name": "PERU", 
  "ForkEvent": 1
 }, 
 {
  "lat": 37.1767249, 
  "lng": -94.5655066, 
  "name": "CARL JUNCTION, MO", 
  "IssueCommentEvent": 1
 }, 
 {
  "lat": 38.4153421, 
  "lng": 27.144474, 
  "IssuesEvent": 1, 
  "name": "IZMIR, TURKEY", 
  "IssueCommentEvent": 12
 }, 
 {
  "lat": 4.4973502, 
  "lng": 38.6611296, 
  "name": "WEB", 
  "ForkEvent": 1
 }, 
 {
  "lat": 26.0792078, 
  "WatchEvent": 1, 
  "lng": 119.2957071, 
  "name": "FUZHOU, CHINA"
 }, 
 {
  "lat": null, 
  "lng": null, 
  "name": "MONTR\u00e9AL / COWANSVILLE, QC, CANADA", 
  "ForkEvent": 1
 }, 
 {
  "lat": 38.7251776, 
  "WatchEvent": 2, 
  "lng": -105.6077167, 
  "name": "COLORADO"
 }, 
 {
  "ForkEvent": 1, 
  "PullRequestEvent": 1, 
  "IssueCommentEvent": 11, 
  "lat": 33.8347516, 
  "WatchEvent": 1, 
  "lng": -117.911732, 
  "name": "ANAHEIM, CA"
 }, 
 {
  "lat": -45.8739282, 
  "WatchEvent": 1, 
  "lng": 170.503488, 
  "name": "DUNEDIN, NEW ZEALAND"
 }, 
 {
  "lat": 43.6770252, 
  "WatchEvent": 1, 
  "lng": -70.3711617, 
  "name": "WESTBROOK, ME, US"
 }, 
 {
  "lat": -25.4286927, 
  "WatchEvent": 1, 
  "lng": -49.272373, 
  "name": "CURITIBA, PARAN\u00e1, BRASIL"
 }, 
 {
  "lat": -15.5986686, 
  "lng": -56.0991301, 
  "name": "CUIAB\u00e1/MT", 
  "ForkEvent": 1
 }, 
 {
  "lat": 26.62014255, 
  "WatchEvent": 1, 
  "lng": -80.0629414613509, 
  "name": "LAKE WORTH, FL"
 }, 
 {
  "lat": 56.4885921, 
  "WatchEvent": 1, 
  "lng": 84.9523238, 
  "name": "TOMSK, RUSSIA"
 }, 
 {
  "lat": 38.9812237, 
  "lng": -77.0971082, 
  "IssuesEvent": 2, 
  "name": "BETHESDA, MD USA", 
  "IssueCommentEvent": 1
 }, 
 {
  "lat": null, 
  "WatchEvent": 1, 
  "lng": null, 
  "name": "\u4e2d\u534e\u4eba\u6c11\u5171\u548c\u56fd\u798f\u5efa\u7701\u53a6\u95e8\u5e02"
 }, 
 {
  "lat": 50.8116902, 
  "WatchEvent": 1, 
  "lng": -0.3703948, 
  "name": "WORTHING, UK"
 }, 
 {
  "lat": -6.1810153, 
  "WatchEvent": 1, 
  "lng": 106.828335, 
  "name": "JAKARTA, INDONESIA"
 }, 
 {
  "lat": 60.3568769, 
  "WatchEvent": 2, 
  "lng": 5.37306653035156, 
  "name": "BERGEN, NORWAY"
 }, 
 {
  "lat": 28.63135, 
  "WatchEvent": 1, 
  "lng": 77.2494606, 
  "name": "DELHI, INDIA", 
  "ForkEvent": 1
 }, 
 {
  "lat": -6.8699697, 
  "lng": -75.0458515, 
  "name": "PER\u00fa", 
  "ForkEvent": 1
 }, 
 {
  "lat": 38.965062, 
  "lng": -122.837146453182, 
  "name": "KELSEYVILLE, CA", 
  "IssueCommentEvent": 1
 }, 
 {
  "lat": 47.48141835, 
  "WatchEvent": 1, 
  "lng": 19.1460275064335, 
  "name": "BUDAPEST, HUNGARY", 
  "IssueCommentEvent": 4
 }, 
 {
  "lat": 40.5621704, 
  "WatchEvent": 1, 
  "lng": -111.929658, 
  "name": "SOUTH JORDAN, UTAH"
 }, 
 {
  "name": "ROCHESTER, NY", 
  "IssueCommentEvent": 1, 
  "lat": 43.1572851, 
  "WatchEvent": 3, 
  "lng": -77.6152141, 
  "ForkEvent": 1
 }, 
 {
  "lat": 42.3788774, 
  "lng": -72.032366, 
  "IssuesEvent": 1, 
  "name": "MASSACHUSETTS"
 }, 
 {
  "name": "AUSTIN, TEXAS", 
  "PullRequestEvent": 1, 
  "lat": 30.1968545, 
  "WatchEvent": 2, 
  "lng": -97.5975533560703, 
  "ForkEvent": 2
 }, 
 {
  "lat": 53.2190692, 
  "WatchEvent": 1, 
  "lng": 6.5680421, 
  "name": "GRONINGEN"
 }, 
 {
  "lat": 30.7204507, 
  "WatchEvent": 1, 
  "lng": 76.7669704, 
  "name": "CHANDIGARH"
 }, 
 {
  "lat": 32.9603375, 
  "WatchEvent": 1, 
  "lng": -96.8302601521543, 
  "name": "ADDISON, TEXAS"
 }, 
 {
  "lat": 52.4368343, 
  "WatchEvent": 1, 
  "lng": 30.9743404, 
  "name": "BELARUS, GOMEL"
 }, 
 {
  "name": "MONTREAL, QC", 
  "IssueCommentEvent": 1, 
  "lat": 45.5224507, 
  "lng": -73.5912827, 
  "IssuesEvent": 2, 
  "ForkEvent": 1
 }, 
 {
  "lat": 43.9792797, 
  "lng": -120.737257, 
  "name": "OREGON", 
  "ForkEvent": 1
 }, 
 {
  "lat": 48.7763511, 
  "lng": 9.1829049, 
  "name": "STUTTGART", 
  "ForkEvent": 1
 }, 
 {
  "lat": 40.6410162, 
  "lng": -8.653533, 
  "IssuesEvent": 1, 
  "name": "AVEIRO, PORTUGAL"
 }, 
 {
  "lat": 39.52927, 
  "WatchEvent": 1, 
  "lng": -119.8136744, 
  "name": "RENO, NV", 
  "ForkEvent": 1
 }, 
 {
  "lat": 52.3217142, 
  "WatchEvent": 1, 
  "lng": 10.2325204, 
  "name": "PEINE"
 }, 
 {
  "lat": 4.5980478, 
  "WatchEvent": 1, 
  "lng": -74.0760867, 
  "name": "BOGOTA COLOMBIA"
 }, 
 {
  "lat": 4.5980478, 
  "WatchEvent": 1, 
  "lng": -74.0760867, 
  "name": "BOGOT\u00e1"
 }, 
 {
  "lat": 40.75649, 
  "WatchEvent": 1, 
  "lng": -73.6448513, 
  "name": "WILLISTON PARK, NY"
 }, 
 {
  "lat": 37.8313203, 
  "WatchEvent": 1, 
  "lng": -122.2852532, 
  "name": "EMERYVILLE, CA"
 }, 
 {
  "lat": 50.9412323, 
  "lng": 6.9569467, 
  "name": "COLOGNE", 
  "IssueCommentEvent": 2
 }, 
 {
  "lat": null, 
  "WatchEvent": 1, 
  "lng": null, 
  "name": "SOUTHEAST/CENTRAL MICHIGAN, USA"
 }, 
 {
  "lat": -25.1089292, 
  "WatchEvent": 1, 
  "lng": -64.3329697, 
  "name": "SALTA, ARGENTINA"
 }, 
 {
  "lat": 47.8598576, 
  "WatchEvent": 1, 
  "lng": 35.1097643, 
  "name": "UKRAINE, ZAPOROZHYE"
 }, 
 {
  "ForkEvent": 1, 
  "IssueCommentEvent": 6, 
  "lat": 51.4835299, 
  "lng": -3.1836873, 
  "IssuesEvent": 2, 
  "name": "CARDIFF, WALES, UK"
 }, 
 {
  "lat": 31.2253441, 
  "WatchEvent": 12, 
  "lng": 121.4888922, 
  "name": "SHANGHAI, CHINA", 
  "ForkEvent": 3
 }, 
 {
  "PullRequestEvent": 1, 
  "lat": 34.79981, 
  "lng": -87.677251, 
  "name": "FLORENCE, AL", 
  "ForkEvent": 1
 }, 
 {
  "lat": null, 
  "WatchEvent": 1, 
  "lng": null, 
  "name": "B'MORE"
 }, 
 {
  "name": "THAILAND", 
  "IssueCommentEvent": 1, 
  "lat": 14.8971921, 
  "WatchEvent": 4, 
  "lng": 100.83273, 
  "IssuesEvent": 1
 }, 
 {
  "lat": 56.0082556, 
  "WatchEvent": 1, 
  "lng": 92.8702365, 
  "name": "RUSSIA/KRASNOYARSK"
 }, 
 {
  "lat": 49.2888645, 
  "lng": 10.5597373707839, 
  "name": "ANSBACH, BAVARIA, GERMANY", 
  "IssueCommentEvent": 1
 }, 
 {
  "lat": 38.367814, 
  "lng": -122.76598019449, 
  "name": "SANTA ROSA, CA, USA", 
  "IssueCommentEvent": 6
 }, 
 {
  "lat": 34.1820105, 
  "lng": -118.325888360099, 
  "name": "BURBANK, CA", 
  "IssueCommentEvent": 2
 }, 
 {
  "lat": 22.5462321, 
  "WatchEvent": 1, 
  "lng": 114.0570068, 
  "name": "SHENZHEN,CHINA"
 }, 
 {
  "lat": 53.7974185, 
  "WatchEvent": 2, 
  "lng": -1.5437941, 
  "name": "LEEDS"
 }, 
 {
  "lat": 41.3686645, 
  "lng": -81.6379033, 
  "name": "INDEPENDENCE, OHIO, USA", 
  "ForkEvent": 1
 }, 
 {
  "name": "HONG KONG", 
  "IssueCommentEvent": 1, 
  "lat": 22.2644116, 
  "WatchEvent": 6, 
  "lng": 114.1670609, 
  "ForkEvent": 3
 }, 
 {
  "lat": 31.1244028, 
  "WatchEvent": 1, 
  "lng": 104.39013, 
  "name": "DEYANG,SICHUAN,CHINA"
 }, 
 {
  "lat": 35.000074, 
  "lng": 104.999927, 
  "name": "CN", 
  "ForkEvent": 1
 }, 
 {
  "lat": 49.778073, 
  "WatchEvent": 2, 
  "lng": 9.94346111761006, 
  "name": "W\u00fcRZBURG, GERMANY"
 }, 
 {
  "lat": 61.0666922, 
  "lng": -107.9917071, 
  "name": "CA", 
  "IssueCommentEvent": 1
 }, 
 {
  "lat": 41.8756208, 
  "lng": -87.6243706, 
  "name": "CHICAGO, ILLINOIS USA", 
  "IssueCommentEvent": 3
 }, 
 {
  "ForkEvent": 2, 
  "IssueCommentEvent": 5, 
  "lat": 12.9793998, 
  "WatchEvent": 3, 
  "lng": 77.5903608, 
  "IssuesEvent": 2, 
  "name": "BANGALORE, INDIA"
 }, 
 {
  "ForkEvent": 1, 
  "IssueCommentEvent": 3, 
  "lat": 48.1372719, 
  "WatchEvent": 7, 
  "lng": 11.5754815, 
  "IssuesEvent": 1, 
  "name": "MUNICH"
 }, 
 {
  "lat": 35.9131996, 
  "WatchEvent": 2, 
  "lng": -79.0558445, 
  "name": "CHAPEL HILL, NC"
 }, 
 {
  "lat": 49.8167003, 
  "lng": 15.4749544, 
  "name": "CZ", 
  "IssueCommentEvent": 2
 }, 
 {
  "lat": 41.493929, 
  "WatchEvent": 1, 
  "lng": -72.5982114, 
  "name": "CT"
 }, 
 {
  "lat": 30.2712319, 
  "WatchEvent": 1, 
  "lng": 120.1366684, 
  "name": "\u676d\u5dde\u897f\u6e56\u533a"
 }, 
 {
  "name": "DERBYSHIRE, UK", 
  "IssueCommentEvent": 1, 
  "lat": 53.1185134, 
  "lng": -1.55662794695653, 
  "IssuesEvent": 2, 
  "ForkEvent": 1
 }, 
 {
  "lat": null, 
  "lng": null, 
  "name": "WASHINGTON, DC AREA", 
  "ForkEvent": 1
 }, 
 {
  "lat": -18.9249604, 
  "lng": 46.4416422, 
  "name": "MADAGASCAR", 
  "ForkEvent": 1
 }, 
 {
  "lat": 23.7282161, 
  "WatchEvent": 1, 
  "lng": 90.4098792, 
  "name": "DHAKA"
 }, 
 {
  "lat": 41.1485925, 
  "WatchEvent": 2, 
  "lng": -8.6110201, 
  "name": "PORTO, PORTUGAL", 
  "ForkEvent": 1
 }, 
 {
  "lat": 45.8166064, 
  "WatchEvent": 2, 
  "lng": 16.009434337311, 
  "name": "ZAGREB"
 }, 
 {
  "lat": 19.166667, 
  "WatchEvent": 1, 
  "lng": -104.0, 
  "name": "COLIMA, MEXICO"
 }, 
 {
  "lat": 33.4750975, 
  "WatchEvent": 2, 
  "lng": -86.6289121827419, 
  "name": "BIRMINGHAM, AL"
 }, 
 {
  "lat": null, 
  "lng": null, 
  "name": "CHARLOTTESVILLE, VA, U.S.A", 
  "IssueCommentEvent": 1
 }, 
 {
  "lat": null, 
  "WatchEvent": 1, 
  "lng": null, 
  "name": "HO CHI MINH, VIET NAM"
 }, 
 {
  "lat": 25.37605465, 
  "WatchEvent": 1, 
  "lng": 82.9376423490463, 
  "name": "VARANASI"
 }, 
 {
  "lat": 39.7837304, 
  "lng": -100.4458825, 
  "name": "UNITED STATES OF AMERICA", 
  "ForkEvent": 1
 }, 
 {
  "lat": 35.7730076, 
  "WatchEvent": 1, 
  "lng": -86.2820081, 
  "name": "TENNESSEE", 
  "IssueCommentEvent": 1
 }, 
 {
  "lat": 52.475937, 
  "lng": 1.7529335, 
  "name": "LOWESTOFT, UK", 
  "IssueCommentEvent": 1
 }, 
 {
  "lat": null, 
  "WatchEvent": 1, 
  "lng": null, 
  "name": "CALICUT / ERNAKULAM"
 }, 
 {
  "lat": 55.861147, 
  "lng": -4.2499891, 
  "IssuesEvent": 1, 
  "name": "GLASGOW, SCOTLAND"
 }, 
 {
  "lat": null, 
  "WatchEvent": 1, 
  "lng": null, 
  "name": "SILICON VALLEY, CA"
 }, 
 {
  "lat": 33.5462419, 
  "WatchEvent": 1, 
  "lng": -117.77848448953, 
  "name": "LAGUNA BEACH"
 }, 
 {
  "lat": 58.9680427, 
  "WatchEvent": 2, 
  "lng": 5.7324722, 
  "name": "STAVANGER"
 }, 
 {
  "lat": 54.2188995, 
  "WatchEvent": 1, 
  "lng": 49.6038982, 
  "name": "DIMITROVGRAD, RUSSIA"
 }, 
 {
  "lat": 36.4667412, 
  "WatchEvent": 1, 
  "lng": -5.0267062, 
  "name": "GRANADA - MADRID"
 }, 
 {
  "lat": null, 
  "WatchEvent": 1, 
  "lng": null, 
  "name": "BEIJING PRC"
 }, 
 {
  "lat": 36.6464327, 
  "WatchEvent": 1, 
  "lng": 117.0135274, 
  "name": "JINAN"
 }, 
 {
  "lat": 15.6356088, 
  "IssueCommentEvent": 1, 
  "lng": -89.8988087, 
  "name": "GUATEMALA", 
  "ForkEvent": 1
 }, 
 {
  "lat": -22.9112163, 
  "lng": -43.2093781, 
  "name": "RIO DE JANEIRO/RJ", 
  "ForkEvent": 1
 }, 
 {
  "lat": 50.7762954, 
  "WatchEvent": 2, 
  "lng": 6.0838209, 
  "name": "AACHEN, GERMANY", 
  "IssueCommentEvent": 4
 }, 
 {
  "lat": 40.6501038, 
  "WatchEvent": 1, 
  "lng": -73.9495823, 
  "name": "BROOKLYN"
 }, 
 {
  "lat": -19.4433307, 
  "lng": -42.5483119, 
  "name": "TORONTO, BRAZIL", 
  "ForkEvent": 1
 }, 
 {
  "lat": 40.4416941, 
  "lng": -79.9900861, 
  "name": "PITTSBURGH PA", 
  "ForkEvent": 1
 }, 
 {
  "lat": 39.9074609, 
  "lng": 116.3931621, 
  "name": "\u5317\u4eac", 
  "ForkEvent": 2
 }, 
 {
  "lat": 35.272496, 
  "WatchEvent": 2, 
  "lng": -120.657060097068, 
  "name": "SAN LUIS OBISPO"
 }, 
 {
  "PullRequestEvent": 1, 
  "lat": 51.588785, 
  "lng": 4.7760206, 
  "name": "BREDA, NL", 
  "ForkEvent": 1
 }, 
 {
  "lat": -20.4704658, 
  "WatchEvent": 1, 
  "lng": -54.6239059, 
  "name": "CAMPO GRANDE, MS, BRASIL"
 }, 
 {
  "lat": 56.1368616, 
  "lng": 8.9753347, 
  "name": "HERNING, DENMARK", 
  "ForkEvent": 1
 }, 
 {
  "lat": 46.7693367, 
  "WatchEvent": 1, 
  "lng": 23.5900604, 
  "name": "CLUJ-NAPOCA"
 }, 
 {
  "lat": 57.7072326, 
  "lng": 11.9670171, 
  "name": "G\u00f6TEBORG, SWEDEN", 
  "ForkEvent": 1
 }, 
 {
  "lat": 54.0, 
  "WatchEvent": 1, 
  "lng": -72.0, 
  "name": "QUEBEC"
 }, 
 {
  "lat": 45.74866195, 
  "lng": 21.2225516253049, 
  "name": "TIMISOARA, ROMANIA", 
  "ForkEvent": 1
 }, 
 {
  "lat": 52.0386628, 
  "WatchEvent": 1, 
  "lng": 0.7296722, 
  "name": "SUDBURY, SUFFOLK, UK"
 }, 
 {
  "PullRequestEvent": 1, 
  "lat": 43.714575, 
  "lng": -79.7523867, 
  "name": "BRAMPTON, ONTARIO, CANADA", 
  "ForkEvent": 1
 }, 
 {
  "lat": 18.833333, 
  "WatchEvent": 1, 
  "lng": -98.0, 
  "name": "PUEBLA, MEXICO"
 }, 
 {
  "lat": 39.9074609, 
  "WatchEvent": 2, 
  "lng": 116.3931621, 
  "name": "BEIJING,CHINA", 
  "ForkEvent": 2
 }, 
 {
  "lat": 55.89250045, 
  "lng": 12.8339139646433, 
  "name": "LANDSKRONA, SWEDEN", 
  "ForkEvent": 1
 }, 
 {
  "lat": 34.0709576, 
  "WatchEvent": 1, 
  "lng": -84.2747329, 
  "name": "ALPHARETTA, GA"
 }, 
 {
  "lat": 59.218613, 
  "WatchEvent": 1, 
  "lng": 39.8928691, 
  "name": "VOLOGDA, RUSSIA"
 }, 
 {
  "lat": 48.46613175, 
  "lng": 34.9605738768447, 
  "name": "DNIPROPETROVSK, UKRAINE", 
  "IssueCommentEvent": 1
 }, 
 {
  "lat": 18.9387039, 
  "WatchEvent": 1, 
  "lng": 72.8353711, 
  "name": "BOMBAY, INDIA"
 }, 
 {
  "lat": 37.422005, 
  "lng": -122.084095, 
  "name": "SAN FRANCISCO / SUNNYVALE, CA USA", 
  "IssueCommentEvent": 1
 }, 
 {
  "lat": -3.941506, 
  "WatchEvent": 1, 
  "lng": -55.592135, 
  "name": "BRAS\u00edLIA-DF-BRASIL"
 }, 
 {
  "name": "CANADA", 
  "IssueCommentEvent": 1, 
  "lat": 61.0666922, 
  "WatchEvent": 8, 
  "lng": -107.9917071, 
  "ForkEvent": 1
 }, 
 {
  "lat": 22.97374625, 
  "WatchEvent": 1, 
  "lng": 120.635564806779, 
  "name": "KAOHSIUNG CITY, TAIWAN"
 }, 
 {
  "name": "401 PRINCESS STREET APT. 604, KINGSTON, ON, CANADA", 
  "PullRequestEvent": 1, 
  "IssueCommentEvent": 1, 
  "lat": null, 
  "lng": null, 
  "IssuesEvent": 3
 }, 
 {
  "lat": 51.3090209, 
  "lng": 9.4762981, 
  "name": "KASSEL, GERMANY", 
  "ForkEvent": 1
 }, 
 {
  "lat": 52.3710088, 
  "WatchEvent": 1, 
  "lng": 4.9001115, 
  "name": "AMSTERDAM, THE NETHERLANDS", 
  "IssueCommentEvent": 1
 }, 
 {
  "lat": null, 
  "lng": null, 
  "name": "SDUT", 
  "ForkEvent": 1
 }, 
 {
  "lat": 30.3270834, 
  "lng": -81.6623237, 
  "IssuesEvent": 1, 
  "name": "CENTRAL FLORIDA", 
  "IssueCommentEvent": 1
 }, 
 {
  "lat": 25.20479635, 
  "lng": 55.1639559041412, 
  "name": "MANAUS - AM", 
  "ForkEvent": 1
 }, 
 {
  "lat": 37.5446217, 
  "WatchEvent": 1, 
  "lng": -122.3091165, 
  "name": "SAN MATEO, CA", 
  "IssueCommentEvent": 1
 }, 
 {
  "lat": -27.45621185, 
  "WatchEvent": 1, 
  "lng": 153.034562021352, 
  "name": "AUSTRALIA, BRISBANE"
 }, 
 {
  "lat": 45.7440485, 
  "lng": 126.6249198, 
  "name": "HARBIN INSTITUTE OF TECHNOLOGY", 
  "ForkEvent": 1
 }, 
 {
  "lat": 39.9783711, 
  "WatchEvent": 1, 
  "lng": -86.1180435, 
  "name": "CARMEL, IN"
 }, 
 {
  "lat": 45.4666211, 
  "WatchEvent": 2, 
  "lng": 9.1906166, 
  "name": "MILAN, ITALY"
 }, 
 {
  "lat": 53.1397229, 
  "WatchEvent": 1, 
  "lng": -1.5569834, 
  "name": "MATLOCK, DERBYSHIRE"
 }, 
 {
  "name": "UTRECHT, NETHERLANDS", 
  "PullRequestEvent": 1, 
  "IssueCommentEvent": 1, 
  "lat": 52.11855295, 
  "lng": 5.15259877272615, 
  "ForkEvent": 1
 }, 
 {
  "lat": 38.8951148, 
  "WatchEvent": 1, 
  "lng": -77.0363716, 
  "name": "WASHINGTON DC", 
  "ForkEvent": 1
 }, 
 {
  "lat": 32.0804808, 
  "lng": 34.7805274, 
  "name": "TEL AVIV, ISRAEL", 
  "ForkEvent": 1
 }, 
 {
  "ForkEvent": 1, 
  "IssueCommentEvent": 2, 
  "lat": 49.4871968, 
  "WatchEvent": 5, 
  "lng": 31.2718321, 
  "IssuesEvent": 1, 
  "name": "UKRAINE"
 }, 
 {
  "lat": 51.4835299, 
  "lng": -3.1836873, 
  "name": "CARDIFF, UK", 
  "ForkEvent": 1
 }, 
 {
  "lat": 46.2545268, 
  "WatchEvent": 1, 
  "lng": 20.1485919, 
  "name": "SZEGED / HUNGARY"
 }, 
 {
  "lat": 44.290034, 
  "WatchEvent": 1, 
  "lng": -94.4607781818897, 
  "name": "NEW ULM, MN"
 }, 
 {
  "name": "EDINBURGH", 
  "IssueCommentEvent": 1, 
  "lat": 55.9483399, 
  "lng": -3.1932723, 
  "IssuesEvent": 1, 
  "ForkEvent": 1
 }, 
 {
  "lat": 41.2893535, 
  "WatchEvent": 1, 
  "lng": 36.3258984, 
  "name": "SAMSUN / TURKEY"
 }, 
 {
  "lat": 52.0357457, 
  "lng": -2.4287821, 
  "IssuesEvent": 1, 
  "name": "LEDBURY, UK", 
  "IssueCommentEvent": 2
 }, 
 {
  "lat": 33.6864432, 
  "WatchEvent": 1, 
  "lng": -117.1770437, 
  "name": "MENIFEE, CA"
 }, 
 {
  "lat": 59.2662528, 
  "lng": 9.53159442380771, 
  "name": "SKIEN, NORWAY", 
  "ForkEvent": 1
 }, 
 {
  "name": "SHANGHAI", 
  "IssueCommentEvent": 2, 
  "lat": 31.2253441, 
  "WatchEvent": 14, 
  "lng": 121.4888922, 
  "IssuesEvent": 1, 
  "ForkEvent": 7
 }, 
 {
  "ForkEvent": 4, 
  "PullRequestEvent": 1, 
  "IssueCommentEvent": 14, 
  "lat": 54.0731702, 
  "WatchEvent": 31, 
  "lng": 7.45860589983153, 
  "IssuesEvent": 5, 
  "name": "GERMANY"
 }, 
 {
  "name": "INDIANAPOLIS, INDIANA", 
  "lat": 39.7683795, 
  "WatchEvent": 2, 
  "lng": -86.1580447, 
  "IssuesEvent": 1, 
  "ForkEvent": 2
 }, 
 {
  "lat": -36.50775635, 
  "lng": 174.540946482123, 
  "IssuesEvent": 1, 
  "name": "AUCKLAND, NEW ZEALAND", 
  "IssueCommentEvent": 2
 }, 
 {
  "lat": 12.3724928, 
  "WatchEvent": 1, 
  "lng": -84.8700308, 
  "name": "NICARAGUA"
 }, 
 {
  "lat": 40.0796319, 
  "WatchEvent": 1, 
  "lng": -89.4339809, 
  "name": "ILLINOIS, USA"
 }, 
 {
  "ForkEvent": 2, 
  "PullRequestEvent": 1, 
  "IssueCommentEvent": 4, 
  "lat": 35.7804015, 
  "WatchEvent": 2, 
  "lng": -78.6390779, 
  "IssuesEvent": 1, 
  "name": "RALEIGH, NC"
 }, 
 {
  "lat": 33.413327, 
  "lng": -111.633601414963, 
  "name": "MESA, AZ", 
  "ForkEvent": 2
 }, 
 {
  "lat": 55.5805786, 
  "WatchEvent": 1, 
  "lng": 37.4062709, 
  "name": "MOSCOW, RUSSIAN FEDERATION"
 }, 
 {
  "lat": 30.3321838, 
  "WatchEvent": 1, 
  "lng": -81.655651, 
  "name": "JACKSONVILLE, FL"
 }, 
 {
  "lat": 32.862876, 
  "lng": -96.9791392558391, 
  "IssuesEvent": 1, 
  "name": "IRVING, TX"
 }, 
 {
  "lat": 45.4098919, 
  "WatchEvent": 1, 
  "lng": 11.8829915, 
  "name": "PADOVA"
 }, 
 {
  "lat": 40.6159185, 
  "lng": -105.070411141304, 
  "name": "FORT COLLINS, COLORADO", 
  "IssueCommentEvent": 3
 }, 
 {
  "lat": 53.4791466, 
  "WatchEvent": 1, 
  "lng": -2.2447445, 
  "name": "MANCHESTER, UK", 
  "IssueCommentEvent": 1
 }, 
 {
  "lat": 56.9493977, 
  "lng": 24.1051846, 
  "name": "RIGA", 
  "ForkEvent": 1
 }, 
 {
  "lat": 43.8514981, 
  "WatchEvent": 1, 
  "lng": 18.3886134, 
  "name": "SARAJEVO, BOSNIA AND HERZEGOVINA"
 }, 
 {
  "lat": 38.8951148, 
  "WatchEvent": 6, 
  "lng": -77.0363716, 
  "name": "WASHINGTON, DC"
 }, 
 {
  "lat": 33.6671869, 
  "WatchEvent": 1, 
  "lng": -117.720593399723, 
  "name": "ORANGE COUNTY, CALIFORNIA", 
  "ForkEvent": 1
 }, 
 {
  "lat": 50.4499875, 
  "WatchEvent": 2, 
  "lng": 30.5234937, 
  "name": "KIEV, UKRAINE", 
  "IssueCommentEvent": 1
 }, 
 {
  "lat": 51.7315319, 
  "WatchEvent": 1, 
  "lng": 19.5681100780093, 
  "name": "POLAND, \u0141\u00f3D\u017a"
 }, 
 {
  "lat": 33.505525, 
  "WatchEvent": 1, 
  "lng": -86.6167582380728, 
  "name": "BIRMINGHAM, ALABAMA, USA"
 }, 
 {
  "lat": 25.0376382, 
  "WatchEvent": 1, 
  "lng": 121.564459, 
  "name": "TAIPEI TAIWAN"
 }, 
 {
  "lat": 34.3734835, 
  "WatchEvent": 1, 
  "lng": -81.0778473172741, 
  "name": "FAIRFIELD COUNTY", 
  "ForkEvent": 1
 }, 
 {
  "lat": -8.4666145, 
  "WatchEvent": 1, 
  "lng": -51.3333976, 
  "name": "BRAS\u00edLIA - BRAZIL"
 }, 
 {
  "lat": 30.8703881, 
  "lng": -92.007126, 
  "name": "LOUISIANA, USA", 
  "IssueCommentEvent": 1
 }, 
 {
  "name": "STUTTGART, GERMANY", 
  "IssueCommentEvent": 1, 
  "lat": 48.7763511, 
  "WatchEvent": 3, 
  "lng": 9.1829049, 
  "ForkEvent": 1
 }, 
 {
  "lat": 41.0170578, 
  "WatchEvent": 1, 
  "lng": 28.9855676, 
  "name": "ISTANBUL / TURKEY"
 }, 
 {
  "lat": 48.1590085, 
  "lng": 14.0226521597322, 
  "name": "WESTERN EUROPE", 
  "ForkEvent": 1
 }, 
 {
  "lat": 52.4146545, 
  "WatchEvent": 1, 
  "lng": -4.0778713, 
  "name": "ABERYSTWYTH, UK"
 }, 
 {
  "lat": 43.0349931, 
  "WatchEvent": 1, 
  "lng": -87.922497, 
  "name": "MILWAUKEE, WI"
 }, 
 {
  "lat": -38.8963308, 
  "WatchEvent": 1, 
  "lng": -60.3418376, 
  "name": "BALNEARIO RETA"
 }, 
 {
  "lat": 33.9220712, 
  "lng": 8.91972381599097, 
  "name": "TUNISIA", 
  "IssueCommentEvent": 1
 }, 
 {
  "lat": 13.5066394, 
  "lng": 104.869423, 
  "IssuesEvent": 1, 
  "name": "CAMBODIA"
 }, 
 {
  "lat": 53.1984756, 
  "WatchEvent": 1, 
  "lng": 50.1142415, 
  "name": "RUSSIA, SAMARA", 
  "ForkEvent": 1
 }, 
 {
  "lat": null, 
  "WatchEvent": 1, 
  "lng": null, 
  "name": "GREATER BOSTON AREA"
 }, 
 {
  "lat": 53.7209169, 
  "lng": -1.8674504, 
  "name": "HALIFAX, WEST YORKSHIRE", 
  "IssueCommentEvent": 1
 }, 
 {
  "lat": 40.2253569, 
  "WatchEvent": 1, 
  "lng": -82.6881395, 
  "name": "OHIO", 
  "IssueCommentEvent": 4
 }, 
 {
  "lat": 35.3002889, 
  "WatchEvent": 1, 
  "lng": 139.4811577, 
  "name": "ENOSHIMA"
 }, 
 {
  "lat": 48.6223502, 
  "lng": 22.3021255, 
  "name": "UZHGOROD", 
  "ForkEvent": 1
 }, 
 {
  "lat": 52.2033051, 
  "lng": 0.124862, 
  "IssuesEvent": 2, 
  "name": "CAMBRIDGE, UK", 
  "IssueCommentEvent": 2
 }, 
 {
  "ForkEvent": 1, 
  "IssueCommentEvent": 3, 
  "lat": 45.5202471, 
  "WatchEvent": 3, 
  "lng": -122.6741949, 
  "name": "PORTLAND, OREGON"
 }, 
 {
  "ForkEvent": 1, 
  "IssueCommentEvent": 2, 
  "lat": 60.1713198, 
  "WatchEvent": 6, 
  "lng": 24.9414566, 
  "IssuesEvent": 1, 
  "name": "HELSINKI, FINLAND"
 }, 
 {
  "lat": 44.136352, 
  "WatchEvent": 1, 
  "lng": 12.2422442, 
  "name": "CESENA"
 }, 
 {
  "lat": 54.99105565, 
  "WatchEvent": 1, 
  "lng": 73.2887755117637, 
  "name": "OMSK/RUSSIAN"
 }, 
 {
  "lat": 43.57566155, 
  "WatchEvent": 1, 
  "lng": 1.37418702670868, 
  "name": "FRANCE, TOULOUSE"
 }, 
 {
  "lat": 40.3270127, 
  "WatchEvent": 1, 
  "lng": -86.1746933, 
  "name": "INDIANA"
 }, 
 {
  "lat": 23.1229013, 
  "WatchEvent": 1, 
  "lng": 113.2529963, 
  "name": "GUANGZHOU ,CHINA"
 }, 
 {
  "lat": 29.0000001, 
  "lng": 119.9999999, 
  "name": "ZHEJIANG,CHINA", 
  "ForkEvent": 1
 }, 
 {
  "lat": 37.7725246, 
  "WatchEvent": 1, 
  "lng": 29.0838956, 
  "name": "DENIZLI/TURKEY"
 }, 
 {
  "ForkEvent": 1, 
  "IssueCommentEvent": 6, 
  "lat": 40.7305991, 
  "WatchEvent": 4, 
  "lng": -73.9865812, 
  "IssuesEvent": 2, 
  "name": "NEW YORK CITY"
 }, 
 {
  "lat": 33.4594945, 
  "WatchEvent": 1, 
  "lng": -88.8298568828566, 
  "name": "STARKVILLE, MS"
 }, 
 {
  "lat": -33.0191604, 
  "WatchEvent": 1, 
  "lng": 27.8998573, 
  "name": "EAST LONDON, SOUTH AFRICA"
 }, 
 {
  "lat": 9.4198802, 
  "WatchEvent": 1, 
  "lng": -74.2301547, 
  "name": "LOUSIANA"
 }, 
 {
  "lat": -6.9220482, 
  "lng": 107.6065309, 
  "name": "BANDUNG, WEST JAVA, ID", 
  "ForkEvent": 1
 }, 
 {
  "lat": 31.2253441, 
  "WatchEvent": 2, 
  "lng": 121.4888922, 
  "name": "SHANGHAI,CHINA", 
  "ForkEvent": 1
 }, 
 {
  "lat": 49.8379408, 
  "WatchEvent": 1, 
  "lng": 24.0296245, 
  "name": "UA, LVOV"
 }, 
 {
  "lat": 46.2017559, 
  "WatchEvent": 1, 
  "lng": 6.1466014, 
  "name": "GENEVE, SWITZERLAND"
 }, 
 {
  "lat": 40.3587621, 
  "WatchEvent": 1, 
  "lng": 116.0136394, 
  "name": "CHINA,BEIJING"
 }, 
 {
  "lat": -6.9220482, 
  "WatchEvent": 2, 
  "lng": 107.6065309, 
  "name": "BANDUNG, INDONESIA", 
  "ForkEvent": 2
 }, 
 {
  "lat": -29.6104854, 
  "WatchEvent": 1, 
  "lng": -53.2391904, 
  "name": "RIO GRANDE DO SUL, BRASIL"
 }, 
 {
  "lat": -38.7399123, 
  "WatchEvent": 1, 
  "lng": -72.5899599, 
  "name": "TEMUCO, CHILE"
 }, 
 {
  "name": "BARBADOS", 
  "lat": 13.1500331, 
  "WatchEvent": 1, 
  "lng": -59.5250305, 
  "IssuesEvent": 1, 
  "ForkEvent": 1
 }, 
 {
  "lat": 50.4499875, 
  "WatchEvent": 2, 
  "lng": 30.5234937, 
  "name": "KYIV, UKRAINE"
 }, 
 {
  "lat": 35.9940329, 
  "WatchEvent": 2, 
  "lng": -78.898619, 
  "name": "DURHAM, NC"
 }, 
 {
  "lat": 32.7801052, 
  "WatchEvent": 1, 
  "lng": -96.8000082, 
  "name": "DALLAS"
 }, 
 {
  "lat": 40.4167047, 
  "WatchEvent": 4, 
  "lng": -3.7035825, 
  "name": "MADRID, SPAIN", 
  "ForkEvent": 1
 }, 
 {
  "lat": 35.6800712, 
  "WatchEvent": 1, 
  "lng": 139.7685224, 
  "name": "TOKYO- JAPAN"
 }, 
 {
  "lat": 52.211067, 
  "lng": 21.0557314, 
  "name": "POLAND / WARSAW", 
  "ForkEvent": 1
 }, 
 {
  "lat": 13.0804251, 
  "WatchEvent": 1, 
  "lng": 80.281807, 
  "name": "CHENNAI, INDIA"
 }, 
 {
  "lat": null, 
  "lng": null, 
  "name": "SYSU", 
  "ForkEvent": 1
 }, 
 {
  "lat": -19.9227318, 
  "WatchEvent": 1, 
  "lng": -43.9450948, 
  "name": "BELO HORIZONTE, MG, BRAZIL"
 }, 
 {
  "lat": 11.82000015, 
  "WatchEvent": 1, 
  "lng": 8.5400004249775, 
  "name": "KANO, NIGERIA."
 }, 
 {
  "lat": 53.1998079, 
  "WatchEvent": 1, 
  "lng": 45.0000428, 
  "name": "RUSSIA/PENZA"
 }, 
 {
  "lat": 51.4835299, 
  "WatchEvent": 1, 
  "lng": -3.1836873, 
  "name": "CARDIFF, WALES", 
  "ForkEvent": 1
 }, 
 {
  "name": "VENEZUELA", 
  "lat": 8.0018709, 
  "WatchEvent": 2, 
  "lng": -66.1109318, 
  "IssuesEvent": 2, 
  "ForkEvent": 2
 }, 
 {
  "lat": 42.3604823, 
  "lng": -71.0595678, 
  "name": "BOSTON, MA, USA", 
  "IssueCommentEvent": 1
 }, 
 {
  "lat": 51.2212016, 
  "WatchEvent": 1, 
  "lng": 4.3996325, 
  "name": "ANTWERPEN"
 }, 
 {
  "lat": 30.1968545, 
  "WatchEvent": 1, 
  "lng": -97.5975533560703, 
  "name": "AUSTIN,TX"
 }, 
 {
  "lat": null, 
  "WatchEvent": 1, 
  "lng": null, 
  "name": "\u4e2d\u56fd\u91cd\u5e86"
 }, 
 {
  "lat": 55.5805786, 
  "WatchEvent": 1, 
  "lng": 37.4062709, 
  "name": "MOSCOW / RUSSIA"
 }, 
 {
  "lat": 57.6564918, 
  "WatchEvent": 1, 
  "lng": 12.0153085, 
  "name": "MOLNDAL, SWEDEN"
 }, 
 {
  "lat": 30.7204507, 
  "WatchEvent": 1, 
  "lng": 76.7669704, 
  "name": "CHANDIGARH, INDIA"
 }, 
 {
  "lat": 10.4434977, 
  "WatchEvent": 1, 
  "lng": 76.2760779952608, 
  "name": "KERALA"
 }, 
 {
  "lat": 38.9716689, 
  "lng": -95.2352501, 
  "name": "LAWRENCE, KS", 
  "ForkEvent": 2
 }, 
 {
  "lat": -33.9289049, 
  "WatchEvent": 1, 
  "lng": 18.4172485, 
  "name": "CAPE TOWN, SOUTH AFRICA"
 }, 
 {
  "lat": 41.6521342, 
  "WatchEvent": 1, 
  "lng": -0.8809428, 
  "name": "ZARAGOZA"
 }, 
 {
  "lat": null, 
  "lng": null, 
  "ForkEvent": 1, 
  "name": "HACKITY-HACK", 
  "IssueCommentEvent": 2
 }, 
 {
  "lat": -16.3338602, 
  "WatchEvent": 1, 
  "lng": -48.9519526, 
  "name": "AN\u00e1POLIS - GOI\u00e1S - BRASIL"
 }, 
 {
  "lat": null, 
  "lng": null, 
  "name": "KRASNOYARK, RUSSIA", 
  "IssueCommentEvent": 1
 }, 
 {
  "ForkEvent": 2, 
  "PullRequestEvent": 3, 
  "IssueCommentEvent": 2, 
  "lat": -33.8548157, 
  "WatchEvent": 13, 
  "lng": 151.2164539, 
  "name": "SYDNEY, AUSTRALIA"
 }, 
 {
  "lat": 57.7679703, 
  "lng": 40.9268459, 
  "IssuesEvent": 1, 
  "name": "KOSTROMA, RUSSIA", 
  "IssueCommentEvent": 1
 }, 
 {
  "name": "DUBLIN, IRELAND", 
  "IssueCommentEvent": 1, 
  "lat": 53.3493074, 
  "WatchEvent": 1, 
  "lng": -6.261175, 
  "ForkEvent": 2
 }, 
 {
  "lat": null, 
  "WatchEvent": 1, 
  "lng": null, 
  "name": "\u041c\u043e\u0441\u043a\u0432\u0430, \u0420\u0443\u0441\u044c (MOSCOW, RUSSIA)"
 }, 
 {
  "lat": 34.8512316, 
  "WatchEvent": 1, 
  "lng": -82.3985105, 
  "name": "GREENVILLE, SC", 
  "IssueCommentEvent": 1
 }, 
 {
  "lat": 20.676143, 
  "WatchEvent": 1, 
  "lng": -103.3469982, 
  "name": "GUADALAJARA, MEXICO"
 }, 
 {
  "lat": 37.266755, 
  "WatchEvent": 1, 
  "lng": -99.325377, 
  "name": "SOUTH PHILADELPHIA"
 }, 
 {
  "lat": 51.0, 
  "lng": -0.416667, 
  "IssuesEvent": 1, 
  "name": "WEST SUSSEX", 
  "IssueCommentEvent": 2
 }, 
 {
  "lat": 45.7575958, 
  "WatchEvent": 5, 
  "lng": 4.8323239, 
  "name": "LYON"
 }, 
 {
  "lat": 41.8932575, 
  "lng": 12.4830619, 
  "name": "MA", 
  "ForkEvent": 1
 }, 
 {
  "lat": 56.9493977, 
  "WatchEvent": 4, 
  "lng": 24.1051846, 
  "IssuesEvent": 1, 
  "name": "RIGA, LATVIA"
 }, 
 {
  "lat": 39.7837304, 
  "WatchEvent": 1, 
  "lng": -100.4458825, 
  "name": "MI"
 }, 
 {
  "lat": -25.4286927, 
  "WatchEvent": 1, 
  "lng": -49.272373, 
  "name": "CURITIBA, PR - BRASIL"
 }, 
 {
  "lat": 22.5000485, 
  "WatchEvent": 1, 
  "lng": -100.0000375, 
  "name": "MX"
 }, 
 {
  "lat": 38.6272733, 
  "WatchEvent": 1, 
  "lng": -90.1978889, 
  "name": "ST. LOUIS, MO"
 }, 
 {
  "lat": 50.6305089, 
  "WatchEvent": 2, 
  "lng": 3.0706414, 
  "name": "LILLE", 
  "ForkEvent": 1
 }, 
 {
  "lat": 52.2319237, 
  "WatchEvent": 1, 
  "lng": 21.0067265, 
  "name": "WARSAW / POLAND"
 }, 
 {
  "lat": 37.7789601, 
  "WatchEvent": 1, 
  "lng": -122.419199, 
  "name": "SAN FRANCISCO, CALIFORNIA"
 }, 
 {
  "lat": 33.9774017, 
  "WatchEvent": 1, 
  "lng": -118.4508018, 
  "name": "MARINA DEL REY, CA."
 }, 
 {
  "ForkEvent": 1, 
  "IssueCommentEvent": 1, 
  "lat": 49.8167003, 
  "WatchEvent": 3, 
  "lng": 15.4749544, 
  "IssuesEvent": 1, 
  "name": "CZECH REPUBLIC"
 }, 
 {
  "lat": 30.5960213, 
  "WatchEvent": 1, 
  "lng": 114.2992796, 
  "name": "WUHAN, HUBEI, CHINA"
 }, 
 {
  "lat": 36.1322965142212, 
  "WatchEvent": 1, 
  "lng": -115.325894166373, 
  "name": "89135"
 }, 
 {
  "name": "NEW YORK, NY", 
  "PullRequestEvent": 3, 
  "IssueCommentEvent": 9, 
  "lat": 40.7305991, 
  "WatchEvent": 22, 
  "lng": -73.9865812, 
  "IssuesEvent": 2, 
  "ForkEvent": 9
 }, 
 {
  "name": "ATLANTA, GA", 
  "IssueCommentEvent": 3, 
  "lat": 33.7490987, 
  "WatchEvent": 6, 
  "lng": -84.3901849, 
  "ForkEvent": 3
 }, 
 {
  "lat": 55.1598408, 
  "WatchEvent": 1, 
  "lng": 61.4025547, 
  "name": "CHELYABINSK"
 }, 
 {
  "lat": -21.7711162, 
  "WatchEvent": 1, 
  "lng": -43.3444146, 
  "name": "JUIZ DE FORA"
 }, 
 {
  "ForkEvent": 2, 
  "PullRequestEvent": 3, 
  "IssueCommentEvent": 4, 
  "lat": 44.8178787, 
  "WatchEvent": 2, 
  "lng": 20.4568089, 
  "name": "BELGRADE, SERBIA"
 }, 
 {
  "lat": 3.1570976, 
  "lng": 101.7009528, 
  "name": "KUALA LUMPUR,MALAYSIA", 
  "ForkEvent": 1
 }, 
 {
  "lat": 50.6406644, 
  "WatchEvent": 1, 
  "lng": 13.8244461, 
  "name": "TEPLICE"
 }, 
 {
  "lat": 59.8108365, 
  "WatchEvent": 1, 
  "lng": 30.4409952109279, 
  "name": "RUSSIA, SAINT-PETERSBURG"
 }, 
 {
  "lat": 34.3999755, 
  "WatchEvent": 1, 
  "lng": -119.703022549307, 
  "name": "SANTA BARBARA, CA", 
  "ForkEvent": 1
 }, 
 {
  "lat": 37.7789601, 
  "lng": -122.419199, 
  "IssuesEvent": 2, 
  "name": "SAN FRANCISCO, CA.", 
  "IssueCommentEvent": 1
 }, 
 {
  "lat": 56.0082556, 
  "WatchEvent": 1, 
  "lng": 92.8702365, 
  "name": "RUSSIA, KRASNOYARSK"
 }, 
 {
  "lat": 51.4580216, 
  "WatchEvent": 1, 
  "lng": -0.9673727, 
  "name": "READING, ENGLAND"
 }, 
 {
  "lat": 37.8844099, 
  "WatchEvent": 1, 
  "lng": -4.7794976, 
  "name": "C\u00f3RDOBA - ESPA\u00f1A"
 }, 
 {
  "lat": null, 
  "WatchEvent": 1, 
  "lng": null, 
  "name": "TORONTO, ONTARIO, CANADA / BANGKOK, THAILAND"
 }, 
 {
  "lat": -27.4689682, 
  "lng": 153.0234991, 
  "name": "BRISBANE, QUEENSLAND, AUSTRALIA", 
  "IssueCommentEvent": 2
 }, 
 {
  "ForkEvent": 1, 
  "PullRequestEvent": 1, 
  "IssueCommentEvent": 7, 
  "lat": 42.3788774, 
  "lng": -72.032366, 
  "IssuesEvent": 1, 
  "name": "MA, USA"
 }, 
 {
  "lat": -23.05798525, 
  "lng": -45.6359569519461, 
  "name": "BRAZIL - S\u00e3O PAULO/SP", 
  "ForkEvent": 1
 }, 
 {
  "ForkEvent": 1, 
  "IssueCommentEvent": 11, 
  "lat": 52.0977181, 
  "WatchEvent": 10, 
  "lng": 19.0258159, 
  "IssuesEvent": 1, 
  "name": "POLAND"
 }, 
 {
  "lat": 38.384423, 
  "WatchEvent": 1, 
  "lng": -122.833228177833, 
  "name": "SEBASTOPOL, CA"
 }, 
 {
  "lat": 34.6852929, 
  "WatchEvent": 2, 
  "lng": 135.5146944, 
  "name": "OSAKA, JAPAN"
 }, 
 {
  "lat": 37.1830197, 
  "WatchEvent": 1, 
  "lng": -3.602192, 
  "name": "GRANADA, SPAIN"
 }, 
 {
  "lat": 26.0792078, 
  "WatchEvent": 1, 
  "lng": 119.2957071, 
  "name": "FUZHOU.CHINA"
 }, 
 {
  "lat": -6.3248735, 
  "WatchEvent": 1, 
  "lng": 106.8800719, 
  "name": "CIRACAS"
 }, 
 {
  "lat": 42.3750997, 
  "lng": -71.1056157, 
  "name": "CAMBRIDGE, MASSACHUSETTS", 
  "ForkEvent": 1
 }, 
 {
  "lat": 31.22852055, 
  "WatchEvent": 1, 
  "lng": 121.402098662966, 
  "name": "CHINA,SHANGHAI"
 }, 
 {
  "lat": 37.9729179, 
  "lng": -122.000716805317, 
  "name": "CONCORD, CA", 
  "IssueCommentEvent": 1
 }, 
 {
  "lat": 35.9584625, 
  "WatchEvent": 1, 
  "lng": -83.952018895445, 
  "name": "KNOXVILLE, TN", 
  "ForkEvent": 1
 }, 
 {
  "ForkEvent": 1, 
  "IssueCommentEvent": 2, 
  "lat": 43.6529206, 
  "WatchEvent": 1, 
  "lng": -79.3849008, 
  "IssuesEvent": 2, 
  "name": "TORONTO, CANADA"
 }, 
 {
  "lat": 45.031826, 
  "WatchEvent": 1, 
  "lng": 38.9716537, 
  "name": "RUSSIA, KRASNODAR"
 }, 
 {
  "lat": null, 
  "lng": null, 
  "name": "\u6cb3\u5357\u7126\u4f5c", 
  "ForkEvent": 1
 }, 
 {
  "lat": null, 
  "WatchEvent": 1, 
  "lng": null, 
  "name": "VANCOUVER, B.C.", 
  "IssueCommentEvent": 1
 }, 
 {
  "lat": 51.2235376, 
  "WatchEvent": 1, 
  "lng": 6.7637565, 
  "name": "DUSSELDORF, GERMANY"
 }, 
 {
  "lat": 41.8536402, 
  "WatchEvent": 1, 
  "lng": -88.1075800549882, 
  "name": "WHEATON, IL"
 }, 
 {
  "lat": null, 
  "WatchEvent": 1, 
  "lng": null, 
  "name": "PORTLAND, OR / VANCOUVER, WA"
 }, 
 {
  "lat": 47.3685586, 
  "WatchEvent": 3, 
  "lng": 8.5404434, 
  "name": "Z\u00fcRICH, SWITZERLAND"
 }, 
 {
  "lat": 59.3362542, 
  "WatchEvent": 1, 
  "lng": 18.061211, 
  "name": "SOUTH EAST ASIA"
 }, 
 {
  "lat": 42.7089493, 
  "WatchEvent": 1, 
  "lng": -78.5780796, 
  "name": "SOUTH WALES"
 }, 
 {
  "lat": 43.1978624, 
  "lng": -70.8736698, 
  "name": "DOVER, NH", 
  "ForkEvent": 1
 }, 
 {
  "lat": 51.2235376, 
  "WatchEvent": 1, 
  "lng": 6.7637565, 
  "name": "DUESSELDORF, GERMANY"
 }, 
 {
  "lat": 56.4593653, 
  "WatchEvent": 1, 
  "lng": -2.9735213, 
  "name": "DUNDEE, UNITED KINGDOM"
 }, 
 {
  "lat": 53.4575797, 
  "lng": -2.2266721, 
  "name": "WORLDWIDE", 
  "ForkEvent": 1
 }, 
 {
  "lat": 64.6863136, 
  "WatchEvent": 1, 
  "lng": 97.7453061, 
  "name": "RU"
 }, 
 {
  "lat": 39.6540605, 
  "lng": 66.9579149, 
  "name": "THE INTERNET", 
  "ForkEvent": 1
 }, 
 {
  "lat": 44.9504037, 
  "WatchEvent": 1, 
  "lng": -93.1015026, 
  "name": "ST. PAUL, MN"
 }, 
 {
  "name": "SANTIAGO, CHILE", 
  "IssueCommentEvent": 2, 
  "lat": -33.4379935, 
  "WatchEvent": 4, 
  "lng": -70.6503976, 
  "IssuesEvent": 1
 }, 
 {
  "lat": 47.6038321, 
  "WatchEvent": 1, 
  "lng": -122.3300624, 
  "name": "SEATTLE, WA.", 
  "ForkEvent": 1
 }, 
 {
  "name": "SAN ANTONIO, TX", 
  "IssueCommentEvent": 1, 
  "lat": 29.4246002, 
  "WatchEvent": 6, 
  "lng": -98.4951405, 
  "ForkEvent": 1
 }, 
 {
  "lat": 45.9896587, 
  "WatchEvent": 1, 
  "lng": -94.6113288, 
  "name": "MINNESOTA"
 }, 
 {
  "lat": 61.7900373, 
  "WatchEvent": 1, 
  "lng": 34.3900084, 
  "name": "\u041f\u0435\u0442\u0440\u043e\u0437\u0430\u0432\u043e\u0434\u0441\u043a"
 }, 
 {
  "lat": 37.8043808, 
  "lng": -122.2708166, 
  "name": "OAKLAND CALIFORNIA", 
  "ForkEvent": 1
 }, 
 {
  "lat": 51.0529691, 
  "lng": -114.062545, 
  "name": "CALGARY", 
  "IssueCommentEvent": 2
 }, 
 {
  "lat": 34.13627365, 
  "WatchEvent": 1, 
  "lng": -118.660645918378, 
  "name": "CALABASAS, CA"
 }, 
 {
  "lat": 48.754402, 
  "WatchEvent": 1, 
  "lng": -122.4788602, 
  "name": "BELLINGHAM, WA, UNITED STATES"
 }, 
 {
  "lat": 52.5310214, 
  "WatchEvent": 2, 
  "lng": -1.2649062, 
  "name": "ENGLAND", 
  "ForkEvent": 2
 }, 
 {
  "lat": 40.03997225, 
  "WatchEvent": 1, 
  "lng": -76.3064177339532, 
  "name": "LANCASTER, PA", 
  "ForkEvent": 2
 }, 
 {
  "lat": 42.2681569, 
  "WatchEvent": 2, 
  "lng": -83.7312291, 
  "name": "ANN ARBOR, MI, USA"
 }, 
 {
  "lat": -30.2962407, 
  "lng": 153.1135293, 
  "IssuesEvent": 4, 
  "name": "COFFS HARBOUR, NSW, AUSTRALIA", 
  "IssueCommentEvent": 3
 }, 
 {
  "PullRequestEvent": 2, 
  "lat": 41.4019509, 
  "lng": -99.6392794, 
  "name": "BROKEN BOW, NE", 
  "ForkEvent": 1
 }, 
 {
  "lat": 53.42969955, 
  "WatchEvent": 1, 
  "lng": 14.5929033646712, 
  "name": "SZCZECIN, POLAND"
 }, 
 {
  "lat": 40.2338438, 
  "IssueCommentEvent": 1, 
  "lng": -111.6585337, 
  "name": "PROVO, UT", 
  "ForkEvent": 2
 }, 
 {
  "lat": 39.8781689, 
  "WatchEvent": 1, 
  "lng": -75.120731, 
  "name": "BROOKLAWN, NJ"
 }, 
 {
  "lat": 21.0292095, 
  "lng": 105.85247, 
  "name": "HANOI - VIETNAM", 
  "ForkEvent": 1
 }, 
 {
  "lat": 13.2904027, 
  "WatchEvent": 1, 
  "lng": 108.4265113, 
  "name": "VIETNAM"
 }, 
 {
  "lat": 35.0761938, 
  "lng": -85.9232121, 
  "name": "FRANKLIN, TN", 
  "ForkEvent": 1
 }, 
 {
  "lat": 50.9035305, 
  "WatchEvent": 1, 
  "lng": -1.4041996, 
  "name": "SOUTHAMPTON, UK"
 }, 
 {
  "lat": 50.06670545, 
  "lng": 36.1975345185745, 
  "name": "UKRAINE, KHARKOV", 
  "IssueCommentEvent": 1
 }, 
 {
  "lat": 53.7589938, 
  "WatchEvent": 1, 
  "lng": -2.7051618, 
  "name": "PRESTON"
 }, 
 {
  "lat": 59.8594126, 
  "WatchEvent": 1, 
  "lng": 17.64112, 
  "name": "UPPSALA"
 }, 
 {
  "lat": -32.9272881, 
  "WatchEvent": 1, 
  "lng": 151.7812534, 
  "name": "NEWCASTLE", 
  "ForkEvent": 1
 }, 
 {
  "ForkEvent": 4, 
  "PullRequestEvent": 5, 
  "IssueCommentEvent": 21, 
  "lat": 52.3710088, 
  "WatchEvent": 1, 
  "lng": 4.9001115, 
  "IssuesEvent": 9, 
  "name": "AMSTERDAM"
 }, 
 {
  "lat": 30.65264, 
  "lng": 104.0650857, 
  "name": "CHINA,CHENGDU", 
  "ForkEvent": 1
 }, 
 {
  "lat": 25.7742658, 
  "WatchEvent": 1, 
  "lng": -80.1936589, 
  "name": "MIAMI, FL"
 }, 
 {
  "lat": 30.1968545, 
  "WatchEvent": 2, 
  "lng": -97.5975533560703, 
  "name": "AUSTIN, TX, USA"
 }, 
 {
  "lat": 11.4432962, 
  "WatchEvent": 1, 
  "lng": 122.524724, 
  "name": "THE MOUNTAINS"
 }, 
 {
  "lat": 2.3923759, 
  "WatchEvent": 3, 
  "lng": 112.8471939, 
  "name": "MALAYSIA", 
  "ForkEvent": 1
 }, 
 {
  "lat": 35.466872, 
  "WatchEvent": 2, 
  "lng": 139.622747, 
  "name": "YOKOHAMA", 
  "ForkEvent": 1
 }, 
 {
  "lat": 48.6928048, 
  "WatchEvent": 2, 
  "lng": 6.1838123, 
  "name": "NANCY", 
  "ForkEvent": 1
 }, 
 {
  "lat": -19.2569391, 
  "lng": 146.8239537, 
  "name": "TOWNSVILLE QLD, AUSTRALIA", 
  "IssueCommentEvent": 1
 }, 
 {
  "name": "FUKUOKA, JAPAN", 
  "IssueCommentEvent": 1, 
  "lat": 33.5895444, 
  "WatchEvent": 1, 
  "lng": 130.3947385, 
  "IssuesEvent": 1
 }, 
 {
  "lat": 30.6765038, 
  "WatchEvent": 1, 
  "lng": 104.0613634, 
  "name": "CHENGDU, SICHUAN"
 }, 
 {
  "lat": 50.4499875, 
  "WatchEvent": 1, 
  "lng": 30.5234937, 
  "name": "KYIV", 
  "IssueCommentEvent": 1
 }, 
 {
  "lat": 45.5181298, 
  "WatchEvent": 1, 
  "lng": -73.5508743749861, 
  "name": "CANADA, MONTREAL"
 }, 
 {
  "lat": 24.4747961, 
  "WatchEvent": 1, 
  "lng": 54.3705762, 
  "name": "ABU DHABI"
 }, 
 {
  "lat": 55.76069055, 
  "WatchEvent": 1, 
  "lng": 49.1900225428766, 
  "name": "RUSSIA, KAZAN"
 }, 
 {
  "lat": -23.5503279, 
  "WatchEvent": 1, 
  "lng": -46.6339647, 
  "name": "S\u00e3O PAULO - SP, BRAZIL", 
  "IssueCommentEvent": 1
 }, 
 {
  "PullRequestEvent": 1, 
  "lat": 41.765599, 
  "lng": -72.6905856293072, 
  "name": "HARTFORD, CT", 
  "ForkEvent": 1
 }, 
 {
  "lat": 42.1419118, 
  "WatchEvent": 1, 
  "lng": 24.7498385, 
  "name": "PLOVDIV, BULGARIA"
 }, 
 {
  "lat": 19.4325301, 
  "WatchEvent": 1, 
  "lng": -99.1332102, 
  "name": "M\u00e9XICO CITY"
 }, 
 {
  "lat": 37.769025, 
  "lng": -122.179173210734, 
  "name": "BERKELEY", 
  "IssueCommentEvent": 1
 }, 
 {
  "name": "UKRAINE, KYIV", 
  "PullRequestEvent": 1, 
  "lat": 50.44852675, 
  "WatchEvent": 2, 
  "lng": 30.5272671213269, 
  "ForkEvent": 3
 }, 
 {
  "ForkEvent": 4, 
  "PullRequestEvent": 1, 
  "IssueCommentEvent": 7, 
  "lat": 32.7469869, 
  "WatchEvent": 2, 
  "lng": -117.21177, 
  "name": "SAN DIEGO, CA"
 }, 
 {
  "lat": 44.4723989, 
  "WatchEvent": 1, 
  "lng": -73.2114941, 
  "name": "BURLINGTON, VERMONT"
 }, 
 {
  "lat": 39.1014537, 
  "WatchEvent": 1, 
  "lng": -84.5124602, 
  "name": "CINCINNATI, OHIO"
 }, 
 {
  "lat": 45.5872128, 
  "WatchEvent": 1, 
  "lng": -122.592854782301, 
  "name": "PDX"
 }, 
 {
  "lat": 40.0757384, 
  "WatchEvent": 9, 
  "lng": -74.4041622, 
  "name": "NEW JERSEY"
 }, 
 {
  "lat": 34.18455365, 
  "WatchEvent": 1, 
  "lng": -118.173559873254, 
  "name": "PASADENA, CALIFORNIA"
 }, 
 {
  "lat": 45.0955107, 
  "WatchEvent": 1, 
  "lng": -93.1861604, 
  "name": "TWIN CITIES, MN, USA"
 }, 
 {
  "lat": 51.9059936, 
  "WatchEvent": 1, 
  "lng": 10.4266284, 
  "name": "GOSLAR / GERMANY"
 }, 
 {
  "lat": 30.2665643, 
  "WatchEvent": 3, 
  "lng": 120.149335, 
  "name": "HANGZHOU, CHINA"
 }, 
 {
  "lat": 37.2153307, 
  "lng": -93.2982521, 
  "name": "SPRINGFIELD, MISSOURI, USA", 
  "IssueCommentEvent": 1
 }, 
 {
  "lat": 48.584614, 
  "WatchEvent": 1, 
  "lng": 7.7507127, 
  "name": "STRASBOURG"
 }, 
 {
  "lat": 35.6800712, 
  "WatchEvent": 1, 
  "lng": 139.7685224, 
  "name": "TOKYO, JP"
 }, 
 {
  "lat": 37.09308895, 
  "WatchEvent": 1, 
  "lng": -97.0398101051189, 
  "name": "BEIJING CHINESE"
 }, 
 {
  "lat": 35.000074, 
  "WatchEvent": 28, 
  "lng": 104.999927, 
  "name": "CHINA", 
  "ForkEvent": 10
 }, 
 {
  "lat": 59.33822, 
  "WatchEvent": 1, 
  "lng": 18.0722617, 
  "name": "SWEDEN, STOCKHOLM"
 }, 
 {
  "lat": 51.0000003, 
  "WatchEvent": 2, 
  "lng": 9.9999997, 
  "name": "EUROPE"
 }, 
 {
  "ForkEvent": 1, 
  "PullRequestEvent": 1, 
  "IssueCommentEvent": 6, 
  "CommitCommentEvent": 1, 
  "lat": 55.670249, 
  "lng": 10.3333283, 
  "name": "DK"
 }, 
 {
  "lat": 37.946945, 
  "lng": -122.5119174, 
  "name": "LARKSPUR, CA 94939", 
  "ForkEvent": 1
 }, 
 {
  "lat": 38.8937364, 
  "lng": -76.9878113963744, 
  "name": "DC", 
  "IssueCommentEvent": 1
 }, 
 {
  "ForkEvent": 2, 
  "PullRequestEvent": 1, 
  "IssueCommentEvent": 4, 
  "lat": 36.7014631, 
  "WatchEvent": 4, 
  "lng": -118.7559974, 
  "IssuesEvent": 1, 
  "name": "CALIFORNIA"
 }, 
 {
  "lat": 13.3522673, 
  "WatchEvent": 1, 
  "lng": 74.7872293, 
  "name": "MANIPAL", 
  "ForkEvent": 1
 }, 
 {
  "lat": -31.9527121, 
  "WatchEvent": 2, 
  "lng": 115.8604796, 
  "name": "PERTH, WESTERN AUSTRALIA"
 }, 
 {
  "lat": 47.6588603, 
  "WatchEvent": 1, 
  "lng": -117.4247134, 
  "name": "SPOKANE, WA"
 }, 
 {
  "ForkEvent": 3, 
  "IssueCommentEvent": 4, 
  "lat": 41.8756208, 
  "WatchEvent": 8, 
  "lng": -87.6243706, 
  "name": "CHICAGO, IL"
 }, 
 {
  "lat": 41.8932575, 
  "WatchEvent": 1, 
  "lng": 12.4830619, 
  "name": "ROME, ITALY", 
  "IssueCommentEvent": 1
 }, 
 {
  "lat": 37.3541132, 
  "WatchEvent": 1, 
  "lng": -121.9551744, 
  "name": "SANTA CLARA, CA"
 }, 
 {
  "lat": null, 
  "WatchEvent": 1, 
  "lng": null, 
  "name": "\u5317\u4eac\u5e02\u6d77\u6dc0\u533a\u4e2d\u5173\u6751\u5927\u885732\u53f7\u548c\u76db\u5609\u4e1a\u5927\u53a68\u5c42", 
  "ForkEvent": 1
 }, 
 {
  "lat": 22.5462321, 
  "lng": 114.0570068, 
  "ForkEvent": 1, 
  "name": "SHENZHEN", 
  "IssueCommentEvent": 1
 }, 
 {
  "lat": 48.2971626, 
  "WatchEvent": 1, 
  "lng": 4.0746257, 
  "name": "TROYES"
 }, 
 {
  "lat": 30.5964235, 
  "WatchEvent": 1, 
  "lng": -87.166263442335, 
  "name": "PACE, FL", 
  "ForkEvent": 1
 }, 
 {
  "lat": 23.1397941, 
  "WatchEvent": 1, 
  "lng": 113.2817601, 
  "name": "GZ.CHINA"
 }, 
 {
  "lat": -26.82623615, 
  "WatchEvent": 1, 
  "lng": -65.216739069374, 
  "name": "SAN MIGUEL DE TUCUM\u00e1N"
 }, 
 {
  "lat": 39.0844687, 
  "WatchEvent": 1, 
  "lng": -94.5630298, 
  "name": "KANSAS CITY, MO"
 }, 
 {
  "lat": -25.5411963, 
  "WatchEvent": 1, 
  "lng": -48.3022401, 
  "name": "BRASILIA - DF BRAZIL"
 }, 
 {
  "lat": 7.78787805, 
  "WatchEvent": 1, 
  "lng": 98.3713626419249, 
  "name": "PHUKET, THAILAND", 
  "IssueCommentEvent": 2
 }, 
 {
  "lat": 43.5892854, 
  "WatchEvent": 1, 
  "lng": -79.6441646, 
  "name": "MISSISSAUGA, ON"
 }, 
 {
  "lat": 45.5398595, 
  "WatchEvent": 2, 
  "lng": 10.2229999, 
  "name": "BRESCIA"
 }, 
 {
  "lat": 4.50907405, 
  "WatchEvent": 1, 
  "lng": -74.1891634872889, 
  "name": "SOACHA"
 }, 
 {
  "ForkEvent": 2, 
  "IssueCommentEvent": 8, 
  "lat": 38.9597594, 
  "WatchEvent": 3, 
  "lng": 34.9249653, 
  "IssuesEvent": 2, 
  "name": "TURKEY"
 }, 
 {
  "lat": 3.0686213, 
  "WatchEvent": 1, 
  "lng": 101.5183418, 
  "name": "SHAH ALAM"
 }, 
 {
  "lat": 32.571296, 
  "WatchEvent": 1, 
  "lng": -85.4079897898663, 
  "name": "AUBURN, AL"
 }, 
 {
  "lat": 43.074761, 
  "WatchEvent": 1, 
  "lng": -89.3837613, 
  "name": "MADISON, WISCONSIN"
 }, 
 {
  "lat": 43.4655524, 
  "WatchEvent": 1, 
  "lng": -80.5217786, 
  "name": "WATERLOO, ONTARIO, CA"
 }, 
 {
  "ForkEvent": 1, 
  "PullRequestEvent": 1, 
  "IssueCommentEvent": 1, 
  "lat": 44.9504037, 
  "WatchEvent": 1, 
  "lng": -93.1015026, 
  "name": "SAINT PAUL, MN"
 }, 
 {
  "lat": 54.3482259, 
  "WatchEvent": 1, 
  "lng": 18.6542888, 
  "name": "GDA\u0144SK, POLAND", 
  "IssueCommentEvent": 2
 }, 
 {
  "lat": 47.2868352, 
  "lng": -120.2126139, 
  "name": "WA", 
  "ForkEvent": 1
 }, 
 {
  "lat": -33.9289049, 
  "WatchEvent": 1, 
  "lng": 18.4172485, 
  "name": "CAPE TOWN SOUTH AFRICA"
 }, 
 {
  "lat": 26.5814112, 
  "lng": 106.7052544, 
  "name": "GUIYANG", 
  "ForkEvent": 1
 }, 
 {
  "ForkEvent": 1, 
  "PullRequestEvent": 1, 
  "IssueCommentEvent": 2, 
  "lat": 52.5198535, 
  "WatchEvent": 11, 
  "lng": 13.4385964, 
  "IssuesEvent": 4, 
  "name": "BERLIN"
 }, 
 {
  "lat": 41.1256631, 
  "WatchEvent": 1, 
  "lng": 16.8619381, 
  "name": "BARI"
 }, 
 {
  "lat": null, 
  "WatchEvent": 1, 
  "lng": null, 
  "name": "WESTERN NEW YORK STATE"
 }, 
 {
  "lat": -16.680882, 
  "WatchEvent": 1, 
  "lng": -49.2532691, 
  "name": "GOI\u00e2NIA"
 }, 
 {
  "lat": 50.3680795, 
  "WatchEvent": 1, 
  "lng": 15.1705203, 
  "name": "D\u011bTENICE"
 }, 
 {
  "lat": 33.597262, 
  "WatchEvent": 1, 
  "lng": 73.0631231, 
  "name": "RAWALPINDI, PAKISTAN"
 }, 
 {
  "lat": 58.4098139, 
  "WatchEvent": 1, 
  "lng": 15.6245221, 
  "name": "LINK\u00f6PING"
 }, 
 {
  "lat": -3.7304512, 
  "WatchEvent": 1, 
  "lng": -38.5217989, 
  "name": "FORTALEZA/CE"
 }, 
 {
  "lat": -32.9272881, 
  "lng": 151.7812534, 
  "name": "NEWCASTLE, AUSTRALIA", 
  "IssueCommentEvent": 1
 }, 
 {
  "lat": 37.8043808, 
  "lng": -122.2708166, 
  "name": "OAKLAND CA", 
  "IssueCommentEvent": 6
 }, 
 {
  "lat": 31.1151498, 
  "WatchEvent": 1, 
  "lng": 121.3767532, 
  "name": "MINHANG, CHINA"
 }, 
 {
  "lat": 15.3663341, 
  "WatchEvent": 1, 
  "lng": 75.1225146, 
  "name": "BANGALORE, KA, INDIA"
 }, 
 {
  "lat": 46.8795445, 
  "WatchEvent": 1, 
  "lng": -113.921434492864, 
  "name": "MISSOULA, MT"
 }, 
 {
  "lat": 39.7391536, 
  "WatchEvent": 1, 
  "lng": -104.9847034, 
  "name": "DENVER, CO."
 }, 
 {
  "lat": 39.9074609, 
  "WatchEvent": 2, 
  "lng": 116.3931621, 
  "name": "BEIJING.CHINA"
 }, 
 {
  "lat": 52.7529379, 
  "WatchEvent": 1, 
  "lng": 13.2457591, 
  "name": "ORANIENBURG, GERMANY"
 }, 
 {
  "lat": 51.4556994, 
  "WatchEvent": 1, 
  "lng": -2.5952658, 
  "name": "BRISTOL, UNITED KINGDOM"
 }, 
 {
  "lat": null, 
  "WatchEvent": 1, 
  "lng": null, 
  "name": "NW ENGLAND & N WALES"
 }, 
 {
  "lat": null, 
  "WatchEvent": 1, 
  "lng": null, 
  "name": "WASHINGTON, D.C."
 }, 
 {
  "lat": 49.4538723, 
  "WatchEvent": 2, 
  "lng": 11.0772978, 
  "name": "NUREMBERG, GERMANY"
 }, 
 {
  "lat": -20.2996826, 
  "WatchEvent": 1, 
  "lng": -40.3016327, 
  "name": "VIT\u00f3RIA, ES, BRAZIL"
 }, 
 {
  "lat": -6.981675, 
  "WatchEvent": 1, 
  "lng": 110.4127516, 
  "name": "SEMARANG, INDONESIA"
 }, 
 {
  "lat": 40.6587901, 
  "WatchEvent": 1, 
  "lng": -3.7663207, 
  "name": "COLMENAR VIEJO, MADRID, SPAIN"
 }, 
 {
  "PullRequestEvent": 1, 
  "lat": -33.9289049, 
  "lng": 18.4172485, 
  "name": "CAPE TOWN, SOUTH AFRICA.", 
  "ForkEvent": 1
 }, 
 {
  "lat": 36.8599389, 
  "WatchEvent": 1, 
  "lng": 10.190973, 
  "name": "ARIANA, TUNISIA"
 }, 
 {
  "lat": 39.6540605, 
  "IssueCommentEvent": 1, 
  "lng": 66.9579149, 
  "name": "INTERNET", 
  "ForkEvent": 1
 }, 
 {
  "lat": 38.6875148, 
  "WatchEvent": 1, 
  "lng": 0.1349059, 
  "name": "SPAIN, VALENCIA"
 }, 
 {
  "lat": 52.5310214, 
  "WatchEvent": 1, 
  "lng": -1.2649062, 
  "name": "ENGLAND, UK"
 }, 
 {
  "lat": -31.9527121, 
  "WatchEvent": 1, 
  "lng": 115.8604796, 
  "name": "PERTH, AUSTRALIA"
 }, 
 {
  "lat": 46.8298662, 
  "lng": 12.7681269, 
  "name": "LINZ, AUSTRIA", 
  "IssueCommentEvent": 2
 }, 
 {
  "lat": -30.0330556, 
  "WatchEvent": 3, 
  "lng": -51.23, 
  "name": "PORTO ALEGRE"
 }, 
 {
  "lat": 50.6305089, 
  "WatchEvent": 2, 
  "lng": 3.0706414, 
  "name": "LILLE, FRANCE", 
  "IssueCommentEvent": 1
 }, 
 {
  "lat": 37.541239, 
  "IssueCommentEvent": 1, 
  "lng": -77.4420183, 
  "name": "RICHMOND, VA", 
  "ForkEvent": 2
 }, 
 {
  "lat": 33.0390099, 
  "lng": -86.908879, 
  "name": "BRIERFIELD, AL", 
  "ForkEvent": 1
 }, 
 {
  "lat": 47.9462225, 
  "lng": 106.975911816806, 
  "name": "ULAANBAATAR MONGOLIA", 
  "ForkEvent": 1
 }, 
 {
  "name": "MICHIGAN", 
  "IssueCommentEvent": 1, 
  "lat": 43.6211955, 
  "WatchEvent": 4, 
  "lng": -84.6824346, 
  "ForkEvent": 1
 }, 
 {
  "lat": 31.2811757, 
  "WatchEvent": 1, 
  "lng": 121.4507375, 
  "name": "CHINA GUANGZHONG"
 }, 
 {
  "name": "VIENNA, AUSTRIA", 
  "IssueCommentEvent": 1, 
  "lat": 48.2084671, 
  "WatchEvent": 2, 
  "lng": 16.3730908, 
  "ForkEvent": 2
 }, 
 {
  "lat": 45.8133113, 
  "WatchEvent": 1, 
  "lng": 14.4808369, 
  "name": "SLOVENIA"
 }, 
 {
  "lat": 52.865196, 
  "WatchEvent": 2, 
  "lng": -7.9794599, 
  "name": "IRELAND"
 }, 
 {
  "ForkEvent": 1, 
  "IssueCommentEvent": 1, 
  "lat": 21.0292095, 
  "WatchEvent": 1, 
  "lng": 105.85247, 
  "name": "HANOI, VIETNAM"
 }, 
 {
  "lat": 53.3004725, 
  "WatchEvent": 1, 
  "lng": 6.5964266, 
  "name": "BEDUM"
 }, 
 {
  "lat": 30.7204507, 
  "lng": 76.7669704, 
  "name": "CHANDIGARH,INDIA", 
  "ForkEvent": 1
 }, 
 {
  "lat": 31.839575, 
  "WatchEvent": 1, 
  "lng": 117.2504849, 
  "name": "UNIVERSITY OF SCIENCE AND TECHNOLOGY OF CHINA"
 }, 
 {
  "lat": 36.6115295, 
  "WatchEvent": 1, 
  "lng": -121.887030775351, 
  "name": "MONTEREY, CA"
 }, 
 {
  "lat": 26.0792078, 
  "WatchEvent": 1, 
  "lng": 119.2957071, 
  "name": "FUZHOU"
 }, 
 {
  "lat": 39.5695824, 
  "lng": 2.6500714, 
  "name": "PALMA DE MALLORCA", 
  "IssueCommentEvent": 1
 }, 
 {
  "lat": 39.1670396, 
  "WatchEvent": 1, 
  "lng": -86.5342881, 
  "name": "BLOOMINGTON, IN, USA"
 }, 
 {
  "lat": -28.4713099, 
  "lng": -49.0143711, 
  "IssuesEvent": 1, 
  "name": "TUBAR\u00e3O", 
  "IssueCommentEvent": 2
 }, 
 {
  "name": "ISRAEL", 
  "IssueCommentEvent": 2, 
  "lat": 30.8760272, 
  "WatchEvent": 4, 
  "lng": 35.0015196, 
  "IssuesEvent": 1
 }, 
 {
  "lat": 35.1490215, 
  "WatchEvent": 1, 
  "lng": -90.0516285, 
  "name": "MEMPHIS, TN"
 }, 
 {
  "lat": 13.7203266, 
  "lng": 100.600820462287, 
  "name": "BANGKOK, THAILAND", 
  "ForkEvent": 1
 }, 
 {
  "ForkEvent": 1, 
  "IssueCommentEvent": 1, 
  "lat": 40.4167047, 
  "WatchEvent": 4, 
  "lng": -3.7035825, 
  "IssuesEvent": 1, 
  "name": "MADRID"
 }, 
 {
  "name": "NORTH CAROLINA", 
  "IssueCommentEvent": 1, 
  "lat": 35.6729639, 
  "WatchEvent": 1, 
  "lng": -79.0392919, 
  "IssuesEvent": 1
 }, 
 {
  "lat": 39.952335, 
  "WatchEvent": 1, 
  "lng": -75.163789, 
  "name": "PHILADELPHIA, PENNSYLVANIA"
 }, 
 {
  "lat": 31.3790494, 
  "WatchEvent": 1, 
  "lng": 121.223390974844, 
  "name": "JIADING SHANGHAI"
 }, 
 {
  "lat": -17.7836904, 
  "lng": -63.1821038, 
  "name": "SANTA CRUZ DE LA SIERRA, BOLIVIA", 
  "ForkEvent": 1
 }, 
 {
  "lat": 43.4655524, 
  "WatchEvent": 1, 
  "lng": -80.5217786, 
  "name": "WATERLOO, ON, CA"
 }, 
 {
  "lat": -32.2478964, 
  "lng": 148.6026502, 
  "name": "DUBBO, AUSTRALIA", 
  "IssueCommentEvent": 1
 }, 
 {
  "PullRequestEvent": 1, 
  "lat": 28.6138967, 
  "lng": 77.2159562, 
  "name": "NEW DELHI, INDIA", 
  "ForkEvent": 1
 }, 
 {
  "lat": 45.5474165, 
  "WatchEvent": 1, 
  "lng": 18.6992921917058, 
  "name": "OSIJEK, CROATIA"
 }, 
 {
  "lat": 42.3486635, 
  "lng": -83.0567375, 
  "name": "DETROIT, MI", 
  "ForkEvent": 3
 }, 
 {
  "lat": 48.6536838, 
  "WatchEvent": 1, 
  "lng": 15.7365244, 
  "name": "STOCKERN, AUSTRIA"
 }, 
 {
  "lat": 38.0146378, 
  "lng": -122.2571151, 
  "IssuesEvent": 1, 
  "name": "LONDON, SAN FRANCISCO"
 }, 
 {
  "name": "LEESBURG, GA", 
  "IssueCommentEvent": 6, 
  "lat": 32.5362511, 
  "WatchEvent": 1, 
  "lng": -84.8957642, 
  "IssuesEvent": 3
 }, 
 {
  "lat": -25.533816, 
  "WatchEvent": 1, 
  "lng": -49.2072163, 
  "name": "S\u00e3O JOS\u00e9 DOS PINHAIS, PR, BRAZIL"
 }, 
 {
  "name": "BEIJING", 
  "lat": 39.9074609, 
  "WatchEvent": 22, 
  "lng": 116.3931621, 
  "IssuesEvent": 1, 
  "ForkEvent": 9
 }, 
 {
  "lat": 39.46740065, 
  "WatchEvent": 1, 
  "lng": 121.937514830608, 
  "name": "\u5927\u8fde"
 }, 
 {
  "lat": 46.4713468, 
  "WatchEvent": 1, 
  "lng": 30.7296333, 
  "name": "ODESSA"
 }, 
 {
  "lat": 40.6628796, 
  "lng": -73.551516, 
  "name": "MERRICK, NY", 
  "IssueCommentEvent": 2
 }, 
 {
  "lat": 48.754402, 
  "WatchEvent": 1, 
  "lng": -122.4788602, 
  "name": "BELLINGHAM,WA"
 }, 
 {
  "lat": -30.0330556, 
  "lng": -51.23, 
  "IssuesEvent": 1, 
  "name": "PORTO ALEGRE, RS, BRAZIL"
 }, 
 {
  "lat": 27.9878943, 
  "WatchEvent": 1, 
  "lng": 86.9247837, 
  "name": "MT.EVEREST", 
  "ForkEvent": 1
 }, 
 {
  "ForkEvent": 1, 
  "IssueCommentEvent": 1, 
  "lat": 35.6800712, 
  "WatchEvent": 12, 
  "lng": 139.7685224, 
  "name": "TOKYO, JAPAN"
 }, 
 {
  "lat": 50.0757486, 
  "WatchEvent": 1, 
  "lng": 20.1362544373619, 
  "name": "POLAND, KRAKOW"
 }, 
 {
  "lat": 42.3604823, 
  "lng": -71.0595678, 
  "IssuesEvent": 1, 
  "name": "BOSTON MA"
 }, 
 {
  "ForkEvent": 1, 
  "PullRequestEvent": 1, 
  "IssueCommentEvent": 1, 
  "lat": 40.5173165, 
  "lng": -75.7774177, 
  "name": "KUTZTOWN, PA"
 }, 
 {
  "lat": 37.9841493, 
  "lng": 23.7279843, 
  "name": "ATHENS", 
  "IssueCommentEvent": 1
 }, 
 {
  "lat": 38.8903961, 
  "WatchEvent": 1, 
  "lng": -77.0841585, 
  "name": "ARLINGTON VA"
 }, 
 {
  "lat": 51.0763286, 
  "WatchEvent": 2, 
  "lng": 13.7384089767404, 
  "name": "DRESDEN, GERMANY"
 }, 
 {
  "lat": 53.0758099, 
  "WatchEvent": 2, 
  "lng": 8.80717, 
  "name": "BREMEN, GERMANY"
 }, 
 {
  "lat": 50.0757486, 
  "lng": 20.1362544373619, 
  "name": "POLAND, KRAK\u00f3W", 
  "IssueCommentEvent": 3
 }, 
 {
  "lat": 34.0501713, 
  "WatchEvent": 10, 
  "lng": -118.2419714, 
  "name": "LOS ANGELES, CA", 
  "ForkEvent": 3
 }, 
 {
  "name": "DUBAI", 
  "IssueCommentEvent": 1, 
  "lat": 25.268359, 
  "WatchEvent": 1, 
  "lng": 55.2963958, 
  "ForkEvent": 1
 }, 
 {
  "lat": 39.7683795, 
  "lng": -86.1580447, 
  "IssuesEvent": 1, 
  "name": "INDIANAPOLIS"
 }, 
 {
  "lat": 51.0391817, 
  "WatchEvent": 1, 
  "lng": 3.7258571, 
  "name": "LALALAND"
 }, 
 {
  "lat": 37.76877715, 
  "WatchEvent": 1, 
  "lng": -122.3940072, 
  "name": "UC BERKELEY"
 }, 
 {
  "lat": 52.0429797, 
  "WatchEvent": 2, 
  "lng": -0.7589607, 
  "name": "MILTON KEYNES, UK"
 }, 
 {
  "lat": 45.5224507, 
  "WatchEvent": 3, 
  "lng": -73.5912827, 
  "name": "MONTREAL, CANADA", 
  "ForkEvent": 1
 }, 
 {
  "lat": null, 
  "WatchEvent": 1, 
  "lng": null, 
  "name": "IL"
 }, 
 {
  "lat": 59.8108365, 
  "lng": 30.4409952109279, 
  "name": "RUSSIA, ST.PETERSBURG", 
  "IssueCommentEvent": 3
 }, 
 {
  "lat": 37.4538274, 
  "lng": -122.1821871, 
  "name": "MENLO PARK, CA", 
  "ForkEvent": 1
 }, 
 {
  "lat": 43.4655524, 
  "WatchEvent": 1, 
  "lng": -80.5217786, 
  "name": "WATERLOO, ONTARIO"
 }, 
 {
  "lat": 48.584614, 
  "lng": 7.7507127, 
  "name": "STRASBOURG, ALSACE, FRANCE", 
  "IssueCommentEvent": 1
 }, 
 {
  "lat": 51.50335, 
  "WatchEvent": 1, 
  "lng": 5.39388, 
  "name": "BEST, NETHERLANDS"
 }, 
 {
  "lat": 43.0285558, 
  "lng": 19.291739, 
  "name": "MONTENEGRO", 
  "IssueCommentEvent": 4
 }, 
 {
  "lat": 37.1232245, 
  "WatchEvent": 1, 
  "lng": -78.4927721, 
  "name": "VIRGINIA"
 }, 
 {
  "lat": 12.72092635, 
  "lng": 78.8003825786974, 
  "name": "VELLORE", 
  "ForkEvent": 1
 }, 
 {
  "lat": 31.8160381, 
  "WatchEvent": 3, 
  "lng": -99.5120986, 
  "name": "TEXAS"
 }, 
 {
  "lat": 33.5761376, 
  "lng": -117.7258122, 
  "name": "ALISO VIEJO, CA", 
  "ForkEvent": 2
 }, 
 {
  "lat": 45.950165, 
  "WatchEvent": 1, 
  "lng": 19.6271553, 
  "name": "STARI ZEDNIK"
 }, 
 {
  "lat": 50.0000002, 
  "WatchEvent": 1, 
  "lng": -86.0000001, 
  "CommitCommentEvent": 1, 
  "name": "ONTARIO, CANADA"
 }, 
 {
  "lat": 37.3887565, 
  "lng": -5.9947066, 
  "name": "SEVILLA", 
  "ForkEvent": 1
 }, 
 {
  "lat": -22.2752762, 
  "WatchEvent": 2, 
  "lng": -42.419415, 
  "name": "RIO DE JANEIRO, BRAZIL"
 }, 
 {
  "ForkEvent": 1, 
  "IssueCommentEvent": 1, 
  "lat": -33.8548157, 
  "WatchEvent": 5, 
  "lng": 151.2164539, 
  "IssuesEvent": 1, 
  "name": "SYDNEY"
 }, 
 {
  "lat": 45.1613638, 
  "lng": 10.799208, 
  "name": "MANTOVA ( ITALY )", 
  "ForkEvent": 2
 }, 
 {
  "lat": 37.465293, 
  "WatchEvent": 1, 
  "lng": -122.260247493256, 
  "name": "REDWOOD CITY"
 }, 
 {
  "lat": 51.083333, 
  "WatchEvent": 1, 
  "lng": -1.166667, 
  "name": "HAMPSHIRE, UNITED KINGDOM"
 }, 
 {
  "lat": 37.769025, 
  "WatchEvent": 1, 
  "lng": -122.179173210734, 
  "name": "BERKELEY, CALIFORNIA", 
  "ForkEvent": 1
 }, 
 {
  "ForkEvent": 1, 
  "IssueCommentEvent": 3, 
  "lat": 55.670249, 
  "WatchEvent": 6, 
  "lng": 10.3333283, 
  "name": "DENMARK"
 }, 
 {
  "lat": 50.89166705, 
  "WatchEvent": 1, 
  "lng": 3.28681281266437, 
  "name": "HULSTE, BELGIUM"
 }, 
 {
  "lat": 51.340462, 
  "WatchEvent": 1, 
  "lng": 12.3747049, 
  "name": "LEIPZIG, GERMANY"
 }, 
 {
  "lat": 48.1113589, 
  "WatchEvent": 2, 
  "lng": -1.680009, 
  "name": "RENNES, FRANCE"
 }, 
 {
  "lat": -20.263202, 
  "WatchEvent": 1, 
  "lng": -40.416549, 
  "name": "CARIACICA/ES"
 }, 
 {
  "lat": 40.9253764, 
  "lng": -73.0473284, 
  "name": "PORT JEFFERSON STATION, NY", 
  "ForkEvent": 1
 }, 
 {
  "lat": -21.9549806, 
  "WatchEvent": 1, 
  "lng": -49.0232348, 
  "name": "SAO PAULO/BRAZIL"
 }, 
 {
  "ForkEvent": 3, 
  "IssueCommentEvent": 11, 
  "lat": 55.5805786, 
  "WatchEvent": 4, 
  "lng": 37.4062709, 
  "IssuesEvent": 2, 
  "name": "MOSCOW"
 }, 
 {
  "lat": 42.3486635, 
  "WatchEvent": 1, 
  "lng": -83.0567375, 
  "name": "DETROIT"
 }, 
 {
  "lat": 47.685823, 
  "lng": -122.1917366, 
  "IssuesEvent": 1, 
  "name": "KIRKLAND, WASHINGTON, USA", 
  "IssueCommentEvent": 1
 }, 
 {
  "lat": 45.4942838, 
  "WatchEvent": 1, 
  "lng": -122.8670451, 
  "name": "ALOHA, OR"
 }, 
 {
  "lat": 39.0844687, 
  "lng": -94.5630298, 
  "IssuesEvent": 1, 
  "name": "KANSAS CITY, MISSOURI"
 }, 
 {
  "ForkEvent": 1, 
  "IssueCommentEvent": 8, 
  "lat": 59.442286, 
  "WatchEvent": 1, 
  "lng": 24.7513884674487, 
  "IssuesEvent": 4, 
  "name": "ESTONIA, TALLINN"
 }, 
 {
  "lat": 33.505525, 
  "WatchEvent": 1, 
  "lng": -86.6167582380728, 
  "name": "BIRMINGHAM, MI"
 }, 
 {
  "lat": -34.9286341, 
  "lng": 138.5998876, 
  "name": "ADELAIDE, SOUTH AUSTRALIA", 
  "IssueCommentEvent": 1
 }, 
 {
  "lat": 51.4165716, 
  "WatchEvent": 1, 
  "lng": -0.7492337, 
  "name": "BRACKNELL, UK."
 }, 
 {
  "lat": 32.3293809, 
  "WatchEvent": 2, 
  "lng": -83.1137366, 
  "name": "GEORGIA, USA"
 }, 
 {
  "lat": 48.4283327, 
  "lng": -123.3649269, 
  "ForkEvent": 1, 
  "name": "VICTORIA, BC, CANADA", 
  "IssueCommentEvent": 2
 }, 
 {
  "lat": 18.1850507, 
  "WatchEvent": 1, 
  "lng": -77.3947693, 
  "name": "JAMAICA"
 }, 
 {
  "lat": -26.5443222, 
  "WatchEvent": 1, 
  "lng": 153.0507705, 
  "name": "SUNSHINE COAST, AUSTRALIA"
 }, 
 {
  "lat": -24.4842187, 
  "WatchEvent": 1, 
  "lng": -51.8148872, 
  "name": "PARAN\u00e1"
 }, 
 {
  "lat": -21.9549806, 
  "lng": -49.0232348, 
  "name": "SAO PAULO, BR", 
  "ForkEvent": 1
 }, 
 {
  "lat": 56.7522945, 
  "WatchEvent": 1, 
  "lng": 16.6612275, 
  "name": "\u00d6LAND, SWEDEN"
 }, 
 {
  "lat": 39.7589478, 
  "WatchEvent": 1, 
  "lng": -84.1916069, 
  "name": "DAYTON, OH"
 }, 
 {
  "lat": -23.5503279, 
  "WatchEvent": 1, 
  "lng": -46.6339647, 
  "name": "S\u00e3O PAULO - SP / BRASIL"
 }, 
 {
  "lat": 41.7692525, 
  "WatchEvent": 1, 
  "lng": 2.2517162, 
  "name": "AIGUAFREDA, BARCELONA"
 }, 
 {
  "lat": 50.4499875, 
  "WatchEvent": 2, 
  "lng": 30.5234937, 
  "name": "KIEV"
 }, 
 {
  "lat": 33.6671869, 
  "WatchEvent": 1, 
  "lng": -117.720593399723, 
  "name": "ORANGE COUNTY, CA"
 }, 
 {
  "lat": 45.5224507, 
  "WatchEvent": 1, 
  "lng": -73.5912827, 
  "name": "MONTREAL, QUEBEC, CANADA"
 }, 
 {
  "lat": 53.3493074, 
  "WatchEvent": 2, 
  "lng": -6.261175, 
  "name": "DUBLIN"
 }, 
 {
  "lat": 35.6729639, 
  "lng": -79.0392919, 
  "IssuesEvent": 1, 
  "name": "NORTH CAROLINA, USA", 
  "IssueCommentEvent": 3
 }, 
 {
  "lat": -33.4379935, 
  "WatchEvent": 1, 
  "lng": -70.6503976, 
  "name": "SANTIAGO", 
  "ForkEvent": 1
 }, 
 {
  "lat": 52.08944, 
  "WatchEvent": 1, 
  "lng": 5.22785, 
  "name": "ZEIST, THE NETHERLANDS"
 }, 
 {
  "lat": 43.1706125, 
  "WatchEvent": 1, 
  "lng": -78.6903133, 
  "name": "LOCKPORT, NEW YORK"
 }, 
 {
  "lat": 39.9074609, 
  "WatchEvent": 3, 
  "lng": 116.3931621, 
  "name": "BEIJING CHINA", 
  "ForkEvent": 1
 }, 
 {
  "lat": 42.0346917, 
  "lng": -93.6201507, 
  "IssuesEvent": 1, 
  "name": "AMES, IOWA", 
  "ForkEvent": 1
 }, 
 {
  "lat": 50.85790405, 
  "WatchEvent": 1, 
  "lng": 5.69681910047491, 
  "name": "MAASTRICHT, THE NETHERLANDS"
 }, 
 {
  "lat": 21.458513, 
  "WatchEvent": 1, 
  "lng": -157.833015075048, 
  "name": "KAHALU'U, HAWAI'I"
 }, 
 {
  "lat": 49.191735, 
  "lng": 9.2249443, 
  "name": "NECKARSULM", 
  "ForkEvent": 1
 }, 
 {
  "lat": 55.6867243, 
  "lng": 12.5700724, 
  "name": "COPENHAGEN, DENMAK", 
  "IssueCommentEvent": 1
 }, 
 {
  "lat": null, 
  "lng": null, 
  "name": "KIYV", 
  "ForkEvent": 1
 }, 
 {
  "lat": 58.7544913, 
  "WatchEvent": 1, 
  "lng": 17.0118143, 
  "name": "NYK\u00f6PING, SWEDEN"
 }, 
 {
  "lat": 35.6800712, 
  "lng": 139.7685224, 
  "name": "TOKYO,JAPAN", 
  "ForkEvent": 1
 }, 
 {
  "lat": -22.0175435, 
  "WatchEvent": 2, 
  "lng": -47.8909707, 
  "name": "S\u00e3O CARLOS - S\u00e3O PAULO - BRASIL"
 }, 
 {
  "lat": 48.7945413, 
  "WatchEvent": 1, 
  "lng": 2.3340758, 
  "name": "CACHAN"
 }, 
 {
  "lat": 55.83402615, 
  "WatchEvent": 2, 
  "lng": 37.6218558959369, 
  "name": "RUSSIA, MOSCOW", 
  "ForkEvent": 2
 }, 
 {
  "lat": 35.0877555, 
  "WatchEvent": 1, 
  "lng": -106.737170962904, 
  "name": "ALBUQUERQUE, NEW MEXICO"
 }, 
 {
  "name": "NEW DELHI", 
  "lat": 28.6138967, 
  "WatchEvent": 2, 
  "lng": 77.2159562, 
  "IssuesEvent": 1, 
  "ForkEvent": 1
 }, 
 {
  "lat": 41.801101, 
  "WatchEvent": 1, 
  "lng": -86.5005242, 
  "name": "SOUTHEASTERN, UNITED STATES"
 }, 
 {
  "lat": 43.4516552, 
  "lng": -80.4924615, 
  "name": "KITCHENER, ONTARIO. CANADA.", 
  "IssueCommentEvent": 1
 }, 
 {
  "lat": -2.438489, 
  "WatchEvent": 1, 
  "lng": -54.699611, 
  "name": "SANTAR\u00e9M PA"
 }, 
 {
  "lat": 56.8666904, 
  "WatchEvent": 1, 
  "lng": 24.5999717, 
  "name": "LATVIA"
 }, 
 {
  "lat": 39.52927, 
  "lng": -119.8136744, 
  "name": "RENO, NEVADA", 
  "IssueCommentEvent": 4
 }, 
 {
  "lat": 41.0170578, 
  "lng": 28.9855676, 
  "IssuesEvent": 1, 
  "name": "\u0130STANBUL, TURKEY", 
  "IssueCommentEvent": 3
 }, 
 {
  "lat": 38.269987, 
  "WatchEvent": 1, 
  "lng": -122.606161441088, 
  "name": "PETALUMA, CA"
 }, 
 {
  "lat": 35.6800712, 
  "WatchEvent": 1, 
  "lng": 139.7685224, 
  "name": "TOKYO,JP"
 }, 
 {
  "ForkEvent": 1, 
  "IssueCommentEvent": 3, 
  "lat": 39.7837304, 
  "WatchEvent": 6, 
  "lng": -100.4458825, 
  "IssuesEvent": 1, 
  "name": "USA"
 }, 
 {
  "lat": -21.9549806, 
  "lng": -49.0232348, 
  "name": "S\u00e3O PAULO - BRASIL", 
  "ForkEvent": 3
 }, 
 {
  "lat": -20.4704658, 
  "WatchEvent": 1, 
  "lng": -54.6239059, 
  "name": "CAMPO GRANDE, MS - BRAZIL", 
  "IssueCommentEvent": 1
 }, 
 {
  "lat": -3.2096037, 
  "WatchEvent": 1, 
  "lng": -77.3261685, 
  "name": "BRAS\u00edLIA | DF"
 }, 
 {
  "lat": 38.9584435, 
  "WatchEvent": 1, 
  "lng": -77.3582532, 
  "name": "RESTON, VA"
 }, 
 {
  "lat": 45.4210328, 
  "WatchEvent": 1, 
  "lng": -75.6900219, 
  "name": "OTTAWA CANADA"
 }, 
 {
  "lat": 38.4840756, 
  "lng": -121.0740108, 
  "name": "SACRAMENTO, CALIFORNIA", 
  "ForkEvent": 1
 }, 
 {
  "lat": 30.0488185, 
  "lng": 31.2436663, 
  "name": "CAIRO/EGYPT", 
  "ForkEvent": 1
 }, 
 {
  "lat": 40.6410162, 
  "WatchEvent": 1, 
  "lng": -8.653533, 
  "name": "AVEIRO"
 }, 
 {
  "lat": 18.9387039, 
  "WatchEvent": 2, 
  "lng": 72.8353711, 
  "name": "MUMBAI, INDIA", 
  "ForkEvent": 2
 }, 
 {
  "lat": 47.759853, 
  "WatchEvent": 1, 
  "lng": -122.2068217, 
  "name": "BOTHELL, WA"
 }, 
 {
  "ForkEvent": 2, 
  "PullRequestEvent": 16, 
  "IssueCommentEvent": 155, 
  "CommitCommentEvent": 2, 
  "lat": 34.2248222, 
  "lng": -87.0091742, 
  "IssuesEvent": 5, 
  "name": "CENTRAL UNITED STATES"
 }, 
 {
  "lat": 47.2639802, 
  "lng": -0.6438838, 
  "IssuesEvent": 1, 
  "name": "CHANZEAUX, FRANCE"
 }, 
 {
  "lat": 49.2499987, 
  "WatchEvent": 1, 
  "lng": -123.1333301, 
  "IssuesEvent": 1, 
  "name": "VANCOUVER"
 }, 
 {
  "lat": null, 
  "WatchEvent": 1, 
  "lng": null, 
  "name": "DUBAI, UAE"
 }, 
 {
  "lat": -36.8268041, 
  "lng": -73.0504239, 
  "name": "CONCEPCION, CHILE.", 
  "ForkEvent": 1
 }, 
 {
  "name": "MONTPELLIER", 
  "lat": 43.6112422, 
  "WatchEvent": 2, 
  "lng": 3.8767337, 
  "IssuesEvent": 1, 
  "ForkEvent": 1
 }, 
 {
  "lat": -23.05798525, 
  "WatchEvent": 1, 
  "lng": -45.6359569519461, 
  "name": "BRAZIL, SP"
 }, 
 {
  "lat": 45.9896587, 
  "lng": -94.6113288, 
  "name": "MN, USA", 
  "IssueCommentEvent": 1
 }, 
 {
  "lat": 30.2665643, 
  "WatchEvent": 2, 
  "lng": 120.149335, 
  "name": "HANGZHOU"
 }, 
 {
  "lat": 43.0605671, 
  "WatchEvent": 1, 
  "lng": -88.1064787, 
  "name": "BROOKFIELD, WI"
 }, 
 {
  "lat": -31.7613365, 
  "lng": -71.3187697, 
  "name": "CHILE", 
  "IssueCommentEvent": 1
 }, 
 {
  "lat": 27.7208575, 
  "WatchEvent": 1, 
  "lng": -82.4331528, 
  "name": "RUSKIN"
 }, 
 {
  "lat": 42.1675635, 
  "lng": -87.9556256144931, 
  "name": "BUFFALO GROVE, IL", 
  "IssueCommentEvent": 1
 }, 
 {
  "ForkEvent": 1, 
  "PullRequestEvent": 2, 
  "IssueCommentEvent": 15, 
  "lat": 48.6928048, 
  "lng": 6.1838123, 
  "IssuesEvent": 4, 
  "name": "NANCY, FRANCE"
 }, 
 {
  "lat": 38.7128995, 
  "WatchEvent": 2, 
  "lng": -9.1328948, 
  "name": "LISBON"
 }, 
 {
  "lat": 49.9999952, 
  "WatchEvent": 1, 
  "lng": 8.2710237, 
  "name": "MAINZ, GERMANY"
 }, 
 {
  "ForkEvent": 1, 
  "IssueCommentEvent": 2, 
  "lat": 59.9132694, 
  "WatchEvent": 4, 
  "lng": 10.7391112, 
  "name": "OSLO, NORWAY"
 }, 
 {
  "lat": null, 
  "lng": null, 
  "name": "OSAKA/KYOTO", 
  "ForkEvent": 1
 }, 
 {
  "lat": -17.149999, 
  "WatchEvent": 1, 
  "lng": 145.600006, 
  "name": "SF BAY"
 }, 
 {
  "lat": 53.3493074, 
  "lng": -6.261175, 
  "IssuesEvent": 2, 
  "name": "DUBLIN - IE", 
  "IssueCommentEvent": 1
 }, 
 {
  "lat": 39.1836082, 
  "WatchEvent": 1, 
  "lng": -96.5716694, 
  "name": "MANHATTAN, KS"
 }, 
 {
  "name": "HOUSTON, TX", 
  "IssueCommentEvent": 4, 
  "lat": 29.5857815, 
  "WatchEvent": 5, 
  "lng": -95.2402893181026, 
  "IssuesEvent": 1
 }, 
 {
  "lat": 41.8756208, 
  "WatchEvent": 2, 
  "lng": -87.6243706, 
  "name": "CHICAGO", 
  "ForkEvent": 1
 }, 
 {
  "lat": 56.9493977, 
  "WatchEvent": 1, 
  "lng": 24.1051846, 
  "name": "RIGA, LATVIJA"
 }, 
 {
  "lat": 46.049865, 
  "WatchEvent": 1, 
  "lng": 14.5068921, 
  "name": "LJUBLJANA, SLOVENIA"
 }, 
 {
  "name": "DARMSTADT", 
  "PullRequestEvent": 1, 
  "IssueCommentEvent": 1, 
  "lat": 49.87474665, 
  "lng": 8.66498507901364, 
  "ForkEvent": 1
 }, 
 {
  "ForkEvent": 1, 
  "IssueCommentEvent": 5, 
  "lat": -21.9549806, 
  "WatchEvent": 8, 
  "lng": -49.0232348, 
  "IssuesEvent": 2, 
  "name": "S\u00e3O PAULO"
 }, 
 {
  "lat": 47.5023158, 
  "lng": -122.7773648, 
  "name": "BELFAIR, WA", 
  "IssueCommentEvent": 1
 }, 
 {
  "lat": 42.6932683, 
  "WatchEvent": 1, 
  "lng": 23.3144912, 
  "name": "SOFIA"
 }, 
 {
  "lat": 59.9083961, 
  "lng": 30.4513792774494, 
  "name": "RUS, SPB", 
  "IssueCommentEvent": 2
 }, 
 {
  "name": "SEVILLE, SPAIN", 
  "IssueCommentEvent": 1, 
  "lat": 37.38270045, 
  "WatchEvent": 1, 
  "lng": -5.96259992700733, 
  "IssuesEvent": 1
 }, 
 {
  "lat": 30.3321838, 
  "WatchEvent": 1, 
  "lng": -81.655651, 
  "name": "JACKSONVILLE, FLORIDA"
 }, 
 {
  "lat": null, 
  "lng": null, 
  "name": "ROCHESTER, NEW YORK / OTTAWA, ONTARIO", 
  "IssueCommentEvent": 2
 }, 
 {
  "ForkEvent": 1, 
  "IssueCommentEvent": 1, 
  "lat": 43.074761, 
  "WatchEvent": 3, 
  "lng": -89.3837613, 
  "name": "MADISON, WI"
 }, 
 {
  "lat": 44.7716333, 
  "WatchEvent": 1, 
  "lng": -89.787902, 
  "name": "THE MOON"
 }, 
 {
  "lat": 52.2246, 
  "WatchEvent": 1, 
  "lng": 4.5196, 
  "name": "SASSENHEIM, NETHERLANDS"
 }, 
 {
  "lat": 21.0292095, 
  "WatchEvent": 2, 
  "lng": 105.85247, 
  "name": "HANOI"
 }, 
 {
  "lat": 59.3307611, 
  "WatchEvent": 8, 
  "lng": 18.0613099, 
  "name": "STOCKHOLM"
 }, 
 {
  "lat": 2.8930783, 
  "WatchEvent": 2, 
  "lng": -73.7845072, 
  "name": "COLOMBIA"
 }, 
 {
  "lat": 21.3255125, 
  "lng": -157.847305493679, 
  "name": "HONOLULU, HAWAII", 
  "IssueCommentEvent": 2
 }, 
 {
  "lat": null, 
  "WatchEvent": 1, 
  "lng": null, 
  "name": "SHIOJIRI, NAGANO, JAPAN"
 }, 
 {
  "lat": 38.4153421, 
  "lng": 27.144474, 
  "ForkEvent": 1, 
  "name": "TURKEY / IZMIR", 
  "IssueCommentEvent": 1
 }, 
 {
  "lat": -33.914808, 
  "WatchEvent": 1, 
  "lng": 18.5489536283776, 
  "name": "CPT"
 }, 
 {
  "lat": 47.0292221, 
  "lng": 28.8381374395861, 
  "name": "MOLDOVA, CHISINAU", 
  "ForkEvent": 2
 }, 
 {
  "ForkEvent": 1, 
  "IssueCommentEvent": 2, 
  "lat": 39.9622601, 
  "WatchEvent": 4, 
  "lng": -83.0007065, 
  "name": "COLUMBUS, OH"
 }, 
 {
  "lat": 39.414443, 
  "WatchEvent": 1, 
  "lng": -77.4105783, 
  "name": "FREDERICK, MD"
 }, 
 {
  "lat": 40.0024775, 
  "WatchEvent": 1, 
  "lng": -105.10955314084, 
  "name": "LAFAYETTE, CO"
 }, 
 {
  "lat": 46.5218269, 
  "WatchEvent": 1, 
  "lng": 6.6327025, 
  "name": "LAUSANNE"
 }, 
 {
  "name": "SAINT-PETERSBURG, RUSSIA", 
  "PullRequestEvent": 1, 
  "lat": 59.9606739, 
  "WatchEvent": 2, 
  "lng": 30.1586551, 
  "ForkEvent": 1
 }, 
 {
  "lat": 54.2118323, 
  "lng": -5.8897216, 
  "IssuesEvent": 1, 
  "name": "NEWCASTLE, UK"
 }, 
 {
  "lat": 55.1598408, 
  "WatchEvent": 2, 
  "lng": 61.4025547, 
  "name": "RUSSIA, CHELYABINSK"
 }, 
 {
  "lat": 58.7523778, 
  "WatchEvent": 2, 
  "lng": 25.3319078, 
  "name": "ESTONIA", 
  "IssueCommentEvent": 1
 }, 
 {
  "lat": 22.2644116, 
  "lng": 114.1670609, 
  "IssuesEvent": 1, 
  "name": "HONGKONG"
 }, 
 {
  "lat": 23.1229013, 
  "WatchEvent": 1, 
  "lng": 113.2529963, 
  "name": "GUANGZHOU"
 }, 
 {
  "lat": 26.334167, 
  "WatchEvent": 1, 
  "lng": 127.805556, 
  "name": "OKINAWA"
 }, 
 {
  "lat": 36.1949274, 
  "WatchEvent": 1, 
  "lng": -86.7417714, 
  "name": "NASHVILLE, TN USA"
 }, 
 {
  "lat": 42.8463696, 
  "lng": -2.6725191, 
  "name": "VIT\u00f3RIA-ES", 
  "ForkEvent": 1
 }, 
 {
  "PullRequestReviewCommentEvent": 9, 
  "name": "SAN FRANCISCO, CA", 
  "GollumEvent": 6, 
  "CreateEvent": 9, 
  "PullRequestEvent": 178, 
  "PushEvent": 211, 
  "IssueCommentEvent": 971, 
  "DeleteEvent": 4, 
  "CommitCommentEvent": 6, 
  "lat": 37.7789601, 
  "WatchEvent": 37, 
  "lng": -122.419199, 
  "IssuesEvent": 606, 
  "ForkEvent": 20
 }, 
 {
  "lat": 51.78553245, 
  "lng": 5.93650970198137, 
  "name": "NETHERLANDS - NIJMEGEN", 
  "IssueCommentEvent": 1
 }, 
 {
  "lat": 55.869656, 
  "WatchEvent": 1, 
  "lng": -3.9661419, 
  "name": "AIRDRIE, UK"
 }, 
 {
  "lat": 59.9606739, 
  "WatchEvent": 3, 
  "lng": 30.1586551, 
  "name": "SAINT PETERSBURG, RUSSIA"
 }, 
 {
  "lat": -25.2961407, 
  "lng": -57.6309129, 
  "name": "ASUNCION, PY", 
  "ForkEvent": 1
 }, 
 {
  "lat": 50.6915893, 
  "WatchEvent": 1, 
  "lng": 3.1741734, 
  "name": "ROUBAIX, FRANCE"
 }, 
 {
  "lat": 55.0282215, 
  "WatchEvent": 1, 
  "lng": 82.9234476, 
  "name": "RUSSIA, NOVOSIBIRSK"
 }, 
 {
  "ForkEvent": 1, 
  "PullRequestEvent": 1, 
  "IssueCommentEvent": 1, 
  "lat": 54.3418225, 
  "lng": 10.1444023253091, 
  "name": "KIEL, GERMANY"
 }, 
 {
  "lat": 39.9074609, 
  "WatchEvent": 15, 
  "lng": 116.3931621, 
  "name": "BEIJING, CHINA", 
  "ForkEvent": 3
 }, 
 {
  "lat": 41.8932575, 
  "WatchEvent": 1, 
  "lng": 12.4830619, 
  "name": "ROME", 
  "IssueCommentEvent": 2
 }, 
 {
  "lat": 41.8932575, 
  "WatchEvent": 1, 
  "lng": 12.4830619, 
  "name": "ROMA"
 }, 
 {
  "lat": 43.2389912, 
  "WatchEvent": 2, 
  "lng": 76.9453467, 
  "name": "ALMATY"
 }, 
 {
  "ForkEvent": 6, 
  "IssueCommentEvent": 13, 
  "lat": 48.8565056, 
  "WatchEvent": 12, 
  "lng": 2.3521334, 
  "IssuesEvent": 3, 
  "name": "PARIS, FRANCE"
 }, 
 {
  "lat": 37.7884969, 
  "WatchEvent": 2, 
  "lng": -122.3558473, 
  "name": "SAN FRANCISCO BAY AREA"
 }, 
 {
  "lat": 45.4563052, 
  "WatchEvent": 1, 
  "lng": -75.7228828, 
  "name": "GATINEAU, QC"
 }, 
 {
  "lat": 41.0814447, 
  "WatchEvent": 2, 
  "lng": -81.5190053, 
  "name": "AKRON, OHIO"
 }, 
 {
  "name": "RIO DE JANEIRO, BRASIL", 
  "IssueCommentEvent": 6, 
  "lat": -22.2752762, 
  "WatchEvent": 1, 
  "lng": -42.419415, 
  "IssuesEvent": 1
 }, 
 {
  "lat": -27.988493, 
  "WatchEvent": 1, 
  "lng": 152.9960743, 
  "name": "BEAUDESERT, AUSTRALIA", 
  "IssueCommentEvent": 1
 }, 
 {
  "lat": -35.1124869, 
  "lng": -65.241974, 
  "IssuesEvent": 1, 
  "name": "ARGENTINA", 
  "ForkEvent": 1
 }, 
 {
  "lat": 47.2185155, 
  "WatchEvent": 2, 
  "lng": -1.5545147, 
  "name": "NANTES"
 }, 
 {
  "lat": 39.74994975, 
  "WatchEvent": 1, 
  "lng": -75.5544492359362, 
  "name": "GALLIFREY"
 }, 
 {
  "lat": 47.3743581, 
  "WatchEvent": 1, 
  "lng": 8.53586397862957, 
  "name": "CITY 17"
 }, 
 {
  "lat": 34.6184471, 
  "WatchEvent": 1, 
  "lng": -82.4779053, 
  "name": "WILLIAMSTON, SC USA"
 }, 
 {
  "lat": -21.9549806, 
  "WatchEvent": 1, 
  "lng": -49.0232348, 
  "name": "SP"
 }, 
 {
  "lat": 47.1110487, 
  "WatchEvent": 1, 
  "lng": 37.6025729, 
  "name": "UKRAINE, MARIUPOL"
 }, 
 {
  "lat": 37.7647993, 
  "lng": -122.4629897, 
  "name": "SF", 
  "ForkEvent": 1
 }, 
 {
  "name": "TORONTO", 
  "IssueCommentEvent": 2, 
  "lat": 43.6529206, 
  "WatchEvent": 5, 
  "lng": -79.3849008, 
  "IssuesEvent": 1, 
  "ForkEvent": 3
 }, 
 {
  "lat": 10.5062524, 
  "WatchEvent": 2, 
  "lng": -66.9145167, 
  "name": "CARACAS, VENEZUELA"
 }, 
 {
  "lat": 54.9063791, 
  "WatchEvent": 1, 
  "lng": -1.375053, 
  "name": "SUNDERLAND, UK"
 }, 
 {
  "lat": 33.0342995, 
  "WatchEvent": 1, 
  "lng": -96.4881102726999, 
  "name": "WYLIE, TX"
 }, 
 {
  "lat": 32.330625, 
  "lng": -95.3074208213444, 
  "name": "TYLER, TX", 
  "IssueCommentEvent": 1
 }, 
 {
  "lat": null, 
  "lng": null, 
  "name": "HO CHI MINH, VIETNAM", 
  "ForkEvent": 1
 }, 
 {
  "lat": 51.0529691, 
  "WatchEvent": 1, 
  "lng": -114.062545, 
  "name": "CALGARY, AB CANADA"
 }, 
 {
  "name": "SPAIN", 
  "IssueCommentEvent": 4, 
  "lat": 40.0028028, 
  "WatchEvent": 7, 
  "lng": -4.003104, 
  "IssuesEvent": 1
 }, 
 {
  "lat": 43.6112422, 
  "WatchEvent": 1, 
  "lng": 3.8767337, 
  "name": "MONTPELLIER, FRANCE"
 }, 
 {
  "lat": 33.3622485, 
  "lng": -111.745910639701, 
  "ForkEvent": 1, 
  "name": "GILBERT, AZ", 
  "IssueCommentEvent": 4
 }, 
 {
  "lat": 36.5748441, 
  "WatchEvent": 21, 
  "lng": 139.2394179, 
  "name": "JAPAN", 
  "ForkEvent": 3
 }, 
 {
  "ForkEvent": 3, 
  "IssueCommentEvent": 4, 
  "lat": 55.6867243, 
  "WatchEvent": 1, 
  "lng": 12.5700724, 
  "name": "COPENHAGEN"
 }, 
 {
  "lat": 30.8703881, 
  "WatchEvent": 1, 
  "lng": -92.007126, 
  "name": "LOUISIANA"
 }, 
 {
  "PullRequestReviewCommentEvent": 1, 
  "name": "ADELAIDE, AUSTRALIA", 
  "IssueCommentEvent": 6, 
  "lat": -34.9286341, 
  "WatchEvent": 1, 
  "lng": 138.5998876, 
  "IssuesEvent": 1
 }, 
 {
  "ForkEvent": 1, 
  "IssueCommentEvent": 3, 
  "lat": 41.0170578, 
  "WatchEvent": 3, 
  "lng": 28.9855676, 
  "IssuesEvent": 1, 
  "name": "ISTANBUL"
 }, 
 {
  "lat": 22.5462321, 
  "WatchEvent": 2, 
  "lng": 114.0570068, 
  "name": "SHENZHEN, CHINA"
 }, 
 {
  "lat": 30.5960213, 
  "WatchEvent": 2, 
  "lng": 114.2992796, 
  "name": "WUHAN"
 }, 
 {
  "lat": 42.7342942, 
  "lng": -90.4784451, 
  "name": "PLATTEVILLE, WISCONSIN", 
  "ForkEvent": 1
 }, 
 {
  "lat": 41.7370229, 
  "WatchEvent": 1, 
  "lng": -99.5873816, 
  "name": "NEBRASKA"
 }, 
 {
  "lat": 38.2542376, 
  "lng": -85.759407, 
  "name": "LOUISVILLE, KY", 
  "ForkEvent": 1
 }, 
 {
  "lat": 18.0000001, 
  "WatchEvent": 1, 
  "lng": -92.6666671, 
  "name": "TABASCO, M\u00e9XICO"
 }, 
 {
  "lat": 40.4416941, 
  "lng": -79.9900861, 
  "name": "PITTSBURGH, PENNSYLVANIA", 
  "ForkEvent": 1
 }, 
 {
  "lat": 46.8298662, 
  "lng": 12.7681269, 
  "IssuesEvent": 5, 
  "name": "LINZ", 
  "IssueCommentEvent": 4
 }, 
 {
  "lat": 39.4303791, 
  "WatchEvent": 4, 
  "lng": -8.56083284682863, 
  "name": "PORTUGAL", 
  "ForkEvent": 3
 }, 
 {
  "lat": -0.0230336, 
  "WatchEvent": 1, 
  "lng": 109.3371099, 
  "name": "PONTIANAK, INDONESIA"
 }, 
 {
  "lat": 50.06670545, 
  "WatchEvent": 1, 
  "lng": 36.1975345185745, 
  "name": "UKRAINE/KHARKOV"
 }, 
 {
  "lat": 51.2235376, 
  "WatchEvent": 1, 
  "lng": 6.7637565, 
  "name": "D\u00fcSSELDORF, GERMANY"
 }, 
 {
  "lat": 45.031826, 
  "WatchEvent": 1, 
  "lng": 38.9716537, 
  "name": "KRASNODAR"
 }, 
 {
  "lat": 64.24439715, 
  "WatchEvent": 1, 
  "lng": -21.768262199674, 
  "name": "REYKJAVIK"
 }, 
 {
  "lat": 55.6867243, 
  "WatchEvent": 4, 
  "lng": 12.5700724, 
  "name": "COPENHAGEN, DENMARK", 
  "IssueCommentEvent": 1
 }, 
 {
  "lat": 46.8739081, 
  "WatchEvent": 1, 
  "lng": -96.7538674, 
  "name": "MOORHEAD, MN"
 }, 
 {
  "lat": 30.2240897, 
  "lng": -92.0198427, 
  "IssuesEvent": 1, 
  "name": "LAFAYETTE, LA", 
  "ForkEvent": 1
 }, 
 {
  "lat": 53.7974185, 
  "WatchEvent": 1, 
  "lng": -1.5437941, 
  "name": "LEEDS, WEST YORKSHIRE"
 }, 
 {
  "lat": 32.5344409, 
  "lng": -117.0393788, 
  "name": "TIJUANA, M\u00e9XICO", 
  "ForkEvent": 1
 }, 
 {
  "lat": 14.5359936, 
  "WatchEvent": 2, 
  "lng": 120.9821935, 
  "name": "SILICON VALLEY"
 }, 
 {
  "lat": 34.0872305, 
  "lng": -118.383367511113, 
  "name": "WEST HOLLYWOOD, CA", 
  "IssueCommentEvent": 1
 }, 
 {
  "lat": 38.6272733, 
  "lng": -90.1978889, 
  "name": "ST. LOUIS, MO, USA", 
  "IssueCommentEvent": 1
 }, 
 {
  "lat": null, 
  "WatchEvent": 1, 
  "lng": null, 
  "name": "GOI\u00e2NIA/GO/BRAZIL"
 }, 
 {
  "lat": -32.0967361, 
  "lng": -63.7940923, 
  "IssuesEvent": 1, 
  "name": "C\u00f3RDOBA, ARGENTINA", 
  "ForkEvent": 1
 }, 
 {
  "lat": 50.82221, 
  "WatchEvent": 4, 
  "lng": -0.1377534, 
  "name": "BRIGHTON, UK"
 }, 
 {
  "lat": 46.8770537, 
  "lng": -96.7897661, 
  "IssuesEvent": 2, 
  "name": "FARGO"
 }, 
 {
  "lat": 50.82221, 
  "WatchEvent": 1, 
  "lng": -0.1377534, 
  "name": "BRIGHTON", 
  "IssueCommentEvent": 1
 }, 
 {
  "lat": 12.9793998, 
  "WatchEvent": 1, 
  "lng": 77.5903608, 
  "name": "BANGALORE, KARNATAKA, INDIA"
 }, 
 {
  "lat": -9.6476843, 
  "WatchEvent": 1, 
  "lng": -35.7339264, 
  "name": "MACEI\u00f3/AL - BRASIL"
 }, 
 {
  "lat": 38.7604815, 
  "WatchEvent": 1, 
  "lng": -92.5617875, 
  "name": "MISSOURI"
 }, 
 {
  "lat": 48.0010795, 
  "WatchEvent": 1, 
  "lng": 37.8042198, 
  "name": "DONETSK, UKRAINE", 
  "IssueCommentEvent": 2
 }, 
 {
  "lat": 36.1524357, 
  "lng": -95.9904093, 
  "name": "TULSA, OK", 
  "ForkEvent": 2
 }, 
 {
  "lat": 22.34339995, 
  "WatchEvent": 1, 
  "lng": 70.7847764005821, 
  "name": "RAJKOT"
 }, 
 {
  "lat": 0.3162223, 
  "lng": 32.5821691, 
  "name": "KAMPALA, UGANDA", 
  "IssueCommentEvent": 2
 }, 
 {
  "lat": null, 
  "WatchEvent": 1, 
  "lng": null, 
  "name": "NOGINSK, MOSCOW REGION"
 }, 
 {
  "lat": 53.4791466, 
  "WatchEvent": 2, 
  "lng": -2.2447445, 
  "name": "MANCHESTER"
 }, 
 {
  "lat": 50.9412323, 
  "WatchEvent": 1, 
  "lng": 6.9569467, 
  "name": "COLOGNE, GERMANY"
 }, 
 {
  "lat": -28.7910334, 
  "lng": 153.5878047, 
  "name": "SOUTH COAST NSW, AUSTRALIA", 
  "IssueCommentEvent": 1
 }, 
 {
  "lat": null, 
  "WatchEvent": 1, 
  "lng": null, 
  "name": "BOURGES FRANCE, BANSKA BYSTRICA SLOVAKIA"
 }, 
 {
  "lat": 33.8750629, 
  "WatchEvent": 1, 
  "lng": 35.843409, 
  "name": "LEBANON", 
  "ForkEvent": 1
 }, 
 {
  "lat": 47.2000338, 
  "WatchEvent": 2, 
  "lng": 13.199959, 
  "name": "AUSTRIA", 
  "ForkEvent": 1
 }, 
 {
  "lat": null, 
  "WatchEvent": 1, 
  "lng": null, 
  "name": "MATSUYAMA,EHIME,JAPAN"
 }, 
 {
  "lat": 54.0088369, 
  "WatchEvent": 1, 
  "lng": 27.2839257, 
  "name": "BELARUS, MINSK", 
  "ForkEvent": 1
 },